[
  {
    "name": "日本",
    "type": "Region",
    "children": [
      {
        "name": "北海道（積丹・知床など）",
        "type": "Zone",
        "description": "冷たい海域ならではの固有種が多く、クリオネ（流氷の天使）やナメダンゴ、オオカミウオなどユニークな生物との出会いが魅力。冬から春にかけての知床半島では、流氷の下を潜る世界的に珍しい「流氷ダイビング」が体験できる。",
        "id": "z_1765713338_267c4a",
        "displayOrder": 1,
        "children": [
          {
            "name": "積丹半島（余市・積丹・神恵内）",
            "description": "北海道を代表する高透明度の海。夏はウニやアワビ、ホタテなど海の幸が豊富。水中洞窟や地形、冬は流氷下のクリオネも魅力。",
            "id": "a_1765713338_b1a84a",
            "children": [
              {
                "name": "積丹・黄金岬",
                "desc": "複雑な岩礁地形と鮮やかなソフトコーラルが魅力的なポイント。浅場は光が差し込み、マクロ生物も豊富です。水深5-20m、流れは穏やかなことが多いですが、エゾメバルやダンゴウオが見られることも。",
                "latitude": 43.205,
                "longitude": 140.48,
                "id": "p_1765713338_41c2e1",
                "image": ""
              },
              {
                "name": "積丹・ローソク岩",
                "desc": "積丹のシンボル、ローソク岩の水中にはアーチやクレパスが点在し、地形派ダイバーを魅了します。群れる魚が多く、ヒラメやカジカ類も見られます。水深10-25m、時に流れが速いので注意が必要です。",
                "latitude": 43.22,
                "longitude": 140.43,
                "id": "p_1765713338_49eccd",
                "image": ""
              },
              {
                "name": "神恵内・水中洞窟",
                "desc": "神恵内村の秘境ポイント。神秘的な水中洞窟を探検するスリリングなダイビングが楽しめます。洞窟内ではオオカミウオやホテイウオが潜むことも。外にはカラフルなソフトコーラルが広がります。水深10-30m。",
                "latitude": 43.14,
                "longitude": 140.34,
                "id": "p_1765713338_f009f8",
                "image": ""
              },
              {
                "name": "余市・シリパ岬沖",
                "desc": "余市エリアを代表する、比較的穏やかで初心者にもおすすめのポイントです。水深5-18mと浅めで、ウミウシや甲殻類などのマクロ生物が豊富。フォト派ダイバーにも人気で、群れにも遭遇しやすいですよ。",
                "latitude": 43.23,
                "longitude": 140.8,
                "id": "p_1765713338_d2e12d",
                "image": ""
              },
              {
                "name": "積丹・水中高原",
                "desc": "広大な海底に絨毯のように広がるソフトコーラルの群生は圧巻の美しさ。そこに集まる魚たちの群れも見応えがあります。水深15-30m、透明度が高い時には幻想的な景観が広がる、中級者向けのポイントです。",
                "latitude": 43.225,
                "longitude": 140.425,
                "id": "p_1765713338_128a83",
                "image": ""
              }
            ]
          },
          {
            "name": "知床半島（ウトロ・羅臼）",
            "description": "世界遺産の厳かな自然が広がる。夏はシャチやクジラの遭遇、冬は流氷ダイビングでクリオネやゴマフアザラシに出会える特別な海。",
            "id": "a_1765713338_383b11",
            "children": [
              {
                "name": "知床ウトロ岬沖",
                "desc": "ウトロのランドマークであるウトロ岬沖の、岩礁とゴロタが広がるポイント。昆布の森に群れるカジカや、冷たい海ならではのウミウシ、甲殻類が見られます。水深は平均15m、流れは比較的穏やかですが、潮の状況で変わります。",
                "latitude": 44.055,
                "longitude": 145.02,
                "id": "p_1765713338_797d80",
                "image": ""
              },
              {
                "name": "知床フレペの滝下",
                "desc": "知床八景の一つ、フレペの滝が直接海に流れ落ちる景観を海中から楽しむポイント。淡水の影響を受ける独特の生態系で、ハナサキガニなどの大型甲殻類や、普段見られない生物との遭遇も期待できます。水深は10～20m。",
                "latitude": 44.023,
                "longitude": 144.975,
                "id": "p_1765713338_55a0a2",
                "image": ""
              },
              {
                "name": "知床羅臼港沖（羅臼の根）",
                "desc": "羅臼側の代表的なポイントで、水深20m前後に大きな根が点在します。エゾイソアイナメやオオカミウオ、ダンゴウオなどの冷水系の生物が豊富で、マクロからワイドまで楽しめます。潮流が速いこともあるため注意が必要です。",
                "latitude": 44.015,
                "longitude": 145.225,
                "id": "p_1765713338_45b924",
                "image": ""
              },
              {
                "name": "知床羅臼マッカウス洞窟",
                "desc": "羅臼沿岸にある海食洞窟。洞窟の奥には陸上から湧き出す温泉が流れ込んでいるため、場所によっては水温の変化を感じられるユニークなポイントです。洞窟内部の独特の雰囲気や、入り口付近の生物観察が魅力です。",
                "latitude": 44.0,
                "longitude": 145.2,
                "id": "p_1765713338_5d89a3",
                "image": ""
              },
              {
                "name": "知床ウトロ灯台沖",
                "desc": "ウトロ港からほど近い、岩場と砂地の混じるポイントです。比較的穏やかな日が多く、初心者にもおすすめ。季節によってはサケの稚魚の大群や、カジカの仲間、様々なウミウシなどが見られます。水深は浅めで、最大15m程度。",
                "latitude": 44.06,
                "longitude": 145.005,
                "id": "p_1765713338_3dc833",
                "image": ""
              }
            ]
          },
          {
            "name": "利尻島・礼文島",
            "description": "日本最北の離島で、手つかずの豊かな海藻林が広がる。ウニやコンブが豊富で、固有種や北の海の生物を観察できる。",
            "id": "a_1765713338_02da7e",
            "children": [
              {
                "name": "利尻・仙法志沖",
                "desc": "利尻富士を望む水中景観が魅力。冷水系の魚たち、フサカサゴやアイナメが岩陰に潜む。豊かな海藻に囲まれ、ウニやホタテも見られます。水深5-20m、流れは比較的穏やかです。",
                "latitude": 45.1,
                "longitude": 141.2,
                "id": "p_1765713338_52bbb7",
                "image": ""
              },
              {
                "name": "利尻・ポン山下",
                "desc": "巨大なケルプ（海藻）の森が広がる海中林ポイント。多様な甲殻類やハゼ、カジカなどが生息し、じっくり観察するのに最適です。まれにアザラシが顔を出すことも。水深10-25m、比較的流れは少ないです。",
                "latitude": 45.18,
                "longitude": 141.25,
                "id": "p_1765713338_f05ae2",
                "image": ""
              },
              {
                "name": "礼文・鉄骨",
                "desc": "礼文島で人気の沈船ポイント。巨大な漁礁となった沈船には、アイナメの群れ、大型のホッケ、タコ、フサカサゴなど多種多様な生物が集まります。見応え十分。水深15-30m、時に流れがある場合があります。",
                "latitude": 45.3,
                "longitude": 141.0,
                "id": "p_1765713338_2a6556",
                "image": ""
              },
              {
                "name": "礼文・澄海岬沖",
                "desc": "「礼文ブルー」と称される高い透明度が自慢。雄大な海中景観と、カジカやホッケ、エビ・カニ類が織りなす生物多様性が魅力です。ダイナミックな岩礁地形も楽しめます。水深10-20m、潮通しが良い場所です。",
                "latitude": 45.45,
                "longitude": 140.58,
                "id": "p_1765713338_678422",
                "image": ""
              },
              {
                "name": "礼文・金田ノ岬",
                "desc": "礼文島最北端近くに位置する、豊かな海藻に覆われた岩礁地帯。冷水系の珍しい生物や、多様な甲殻類、軟体動物の宝庫です。注意深く探せば思わぬ発見があるかも。アザラシに遭遇する可能性もあります。水深5-25m、比較的穏やかです。",
                "latitude": 45.5,
                "longitude": 141.05,
                "id": "p_1765713338_c00eff",
                "image": ""
              }
            ]
          },
          {
            "name": "小樽・札幌周辺（忍路・祝津）",
            "description": "札幌からのアクセスが良い湾内ポイントが多い。ソイやカジカ、タコなどが見られ、初心者から楽しめる。ナイトダイビングも盛ん。",
            "id": "a_1765713338_7ce580",
            "children": [
              {
                "name": "忍路湾内",
                "desc": "忍路漁港の目の前に広がる穏やかな湾内ポイント。砂地と岩礁が混在し、初心者から楽しめる。春にはダンゴウオ、フサギンポやカジカの仲間、多くのウミウシが見られます。水深5〜15mで流れもほぼなく安心です。",
                "latitude": 43.204,
                "longitude": 140.893,
                "id": "p_1765713338_0daaef",
                "image": ""
              },
              {
                "name": "忍路・弁天岩沖",
                "desc": "忍路漁港を出てすぐの弁天岩の沖合。湾内より少し水深があり、根周りにはホッケやアイナメが多く、稀にオオカミウオの目撃情報も。複雑な地形に隠れる生物を探すのが楽しい中級者向けポイント。水深10〜25m。",
                "latitude": 43.205,
                "longitude": 140.89,
                "id": "p_1765713338_edee4c",
                "image": ""
              },
              {
                "name": "祝津・オタモイケーブ",
                "desc": "小樽祝津沖、オタモイ海岸近くに位置する水中洞窟。エメラルドグリーンの光が差し込む神秘的な空間。洞窟内にはイカの卵塊や季節によってはスズキの群れも見られることも。ボートエントリーで水深5〜15m。地形派におすすめ。",
                "latitude": 43.238,
                "longitude": 141.0,
                "id": "p_1765713338_d072d6",
                "image": ""
              },
              {
                "name": "桃内・ゴロタ浜",
                "desc": "桃内海岸のビーチエントリーポイント。ゴロタ石と藻場が広がる浅場が魅力。春のダンゴウオをはじめ、フサギンポ、カジカの仲間、様々なウミウシが豊富。水深3〜10mと浅く、マクロ派や初心者向けの癒し系ダイビングが楽しめます。",
                "latitude": 43.218,
                "longitude": 140.94,
                "id": "p_1765713338_3d2005",
                "image": ""
              },
              {
                "name": "桃内・屏風岩",
                "desc": "桃内沖にそそり立つ水中屏風岩。ダイナミックな岩礁には大型のホッケの群れやアイナメが豊富。冬季にはオオカミウオの姿も。時に潮流が強く発生するため、中級者以上の経験者向け。水深10〜30m。魚影の濃さに圧倒されます。",
                "latitude": 43.22,
                "longitude": 140.935,
                "id": "p_1765713338_f8aeb0",
                "image": ""
              }
            ]
          }
        ]
      },
      {
        "name": "東北（宮城・岩手など）",
        "type": "Zone",
        "description": "冷たい親潮と温かい黒潮の影響が混在する海域で、マクロ生物の宝庫として知られる。アメフラシやウミウシ、カエルアンコウなど、ユニークな生物の観察がメイン。ダイナミックな地形や、豊かな海藻（海中林）の風景も魅力。",
        "id": "z_1765713338_07fbb5",
        "displayOrder": 2,
        "children": [
          {
            "name": "女川・牡鹿半島エリア（宮城県）",
            "description": "豊かなソフトコーラルとマクロ生物が魅力。レアなウミウシや甲殻類が多く、四季折々の生命力に満ちた海を楽しめる。",
            "id": "a_1765713338_624103",
            "children": [
              {
                "name": "女川・出島 北の根",
                "desc": "穏やかな女川湾内に位置する隠れ根。海藻が豊かで、メバル、アイナメ、ホッケなどの根魚が豊富に生息しています。冬から春にかけてはダンゴウオや様々なウミウシ類も観察でき、マクロ派にも人気です。水深は平均15m前後で、流れもほとんどなく初心者から楽しめます。",
                "latitude": 38.42,
                "longitude": 141.42,
                "id": "p_1765713338_b32357",
                "image": ""
              },
              {
                "name": "女川・金華山 西の根",
                "desc": "金華山沖に位置するダイナミックな根。黒潮と親潮が交錯するエリアで、回遊魚との遭遇率が高いのが魅力です。ブリ、ヒラマサ、サワラなどの大物や、時にはマグロの群れを見かけることも。水深は深く、流れがある場合もあるため中級者以上の経験者向けです。",
                "latitude": 38.25,
                "longitude": 141.4,
                "id": "p_1765713338_4595b5",
                "image": ""
              },
              {
                "name": "女川・十八成浜 砂地ガーデン",
                "desc": "牡鹿半島側、十八成浜沖に広がる広大な砂地ポイント。ハゼの仲間やカレイ類、アンコウなど砂地に生息するユニークな生物を観察できます。点在する根にはソフトコーラルやイソギンチャクが群生し、マクロ生物も豊富。比較的穏やかでビギナーでも安心です。",
                "latitude": 38.3,
                "longitude": 141.3,
                "id": "p_1765713338_51466d",
                "image": ""
              },
              {
                "name": "女川・出島 マクロワールド",
                "desc": "出島周辺の浅瀬に広がるマクロ生物の宝庫。特にウミウシの種類が豊富で、年間を通して様々な色鮮やかな種が見られます。甲殻類や幼魚、稀な深海生物の幼体なども出現するため、水中写真愛好家には見逃せないポイント。水深5～10mと浅く、じっくり観察できます。",
                "latitude": 38.41,
                "longitude": 141.41,
                "id": "p_1765713338_19f4b3",
                "image": ""
              },
              {
                "name": "女川・大室湾 隠れ根",
                "desc": "牡鹿半島の大室湾内にひっそりと佇む隠れた根。ソフトコーラルやイソギンチャクが根を覆い、色鮮やかな水中景観が魅力です。季節によっては幼魚の群れが湾内に入り込み、クマノミや各種スズメダイ、ベラなどが見られます。流れも少なく、のんびり潜れるポイントです。",
                "latitude": 38.35,
                "longitude": 141.35,
                "id": "p_1765713338_ffe5ce",
                "image": ""
              }
            ]
          },
          {
            "name": "南三陸・志津川湾エリア（宮城県）",
            "description": "ホヤ棚の下に広がる独特の生態系。ダンゴウオやタツノオトシゴなどのマクロ生物の宝庫で、静かで穏やかな湾内ダイブが人気。",
            "id": "a_1765713338_77c578",
            "children": [
              {
                "name": "南三陸・神割崎",
                "desc": "志津川湾と伊里前湾を分ける景勝地。ダイナミックな岩礁地形と豊かなソフトコーラルが魅力です。春はダンゴウオ、冬はクリオネの観察も期待できます。外洋に面し、時に流れがあります。",
                "latitude": 38.565,
                "longitude": 141.498,
                "id": "p_1765713338_c53e72",
                "image": ""
              },
              {
                "name": "南三陸・竹島沖",
                "desc": "志津川湾内の代表的なポイント。アマモ場やソフトコーラルが広がり、季節ごとに多様な生物が見られます。湾内なので比較的穏やかで、初心者から経験者まで楽しめます。",
                "latitude": 38.652,
                "longitude": 141.483,
                "id": "p_1765713338_aafca8",
                "image": ""
              },
              {
                "name": "南三陸・沖の島周辺",
                "desc": "竹島と並ぶ志津川湾の人気ポイント。ゴロタ石と海藻、ソフトコーラルが織りなす地形が特徴で、透明度が高いことも。ホテイウオやタツノオトシゴ、様々なウミウシとの出会いも楽しみです。",
                "latitude": 38.641,
                "longitude": 141.475,
                "id": "p_1765713338_1a17c6",
                "image": ""
              },
              {
                "name": "南三陸・戸倉の養殖棚",
                "desc": "志津川湾ならではのユニークなポイント。ホタテやホヤの養殖棚の脚が魚たちの隠れ家となり、独特の生態系を育んでいます。人工物と自然が融合した面白い景観です。",
                "latitude": 38.623,
                "longitude": 141.46,
                "id": "p_1765713338_b3a1d6",
                "image": ""
              }
            ]
          },
          {
            "name": "碁石海岸・三陸エリア（岩手県）",
            "description": "ダイナミックな水中地形が特徴。ケーブやトンネル、北方系の生物が多く見られ、高透明度で雄大な景色が広がる。",
            "id": "a_1765713338_fa3704",
            "children": [
              {
                "name": "碁石ケーブ",
                "desc": "陸前高田市・碁石海岸に位置する、光が差し込む美しい洞窟ポイントです。洞窟内では幻想的な光景が広がり、カエルアンコウやエビ・カニ類、様々なウミウシが見られます。水深10-20m、基本穏やかで初心者にもおすすめです。",
                "latitude": 38.975,
                "longitude": 141.672,
                "id": "p_1765713338_eddd52",
                "image": ""
              },
              {
                "name": "穴通磯（あなとおしいそ）",
                "desc": "碁石海岸南部の景勝地にある、巨大な岩に開いた3つの穴を潜り抜ける地形ポイント。アイナメやメバルなどの根魚、季節ごとに多彩なウミウシが見られます。水深5-15mと比較的浅く、潮通しは良いもののポイント内は穏やか。",
                "latitude": 38.96,
                "longitude": 141.67,
                "id": "p_1765713338_95911c",
                "image": ""
              },
              {
                "name": "碁石岬沖",
                "desc": "碁石岬の沖合に広がる、潮通しの良い根と岩礁がメインのポイント。色鮮やかなソフトコーラルの群生が見事。サクラダイやケラマハナダイの群れ、運が良ければ大型回遊魚にも遭遇できます。水深15-30m、時に流れがあり中級者向け。",
                "latitude": 38.969,
                "longitude": 141.678,
                "id": "p_1765713338_c36864",
                "image": ""
              },
              {
                "name": "碁石タカノス岩",
                "desc": "碁石海岸北部にある独立した大きな岩礁。潮通しが良く、魚影の濃さで知られるポイントです。マダイやブリ、ヒラマサなどの回遊魚が回ってくることも。根回りでは様々な根魚や甲殻類を観察できます。水深10-25m、流れに注意。",
                "latitude": 38.98,
                "longitude": 141.675,
                "id": "p_1765713338_0c277f",
                "image": ""
              }
            ]
          },
          {
            "name": "田野畑・北山崎エリア（岩手県）",
            "description": "豪快なリアス式海岸が織りなす水中景観。魚影が濃く、北方系と南方系生物が混在するユニークな環境で、ドリフトダイビングも楽しめる。",
            "id": "a_1765713338_4e40f0",
            "children": [
              {
                "name": "北山崎・キャニオン",
                "desc": "北山崎の断崖絶壁が水中まで続く壮大な地形ポイント。水深20m付近から広がるキャニオンは圧巻で、大型のアイナメやメバル、運が良ければウミガメの姿も。時には強い潮が入り、ドリフトも楽しめます。",
                "latitude": 39.975,
                "longitude": 141.975,
                "id": "p_1765713338_52da9e",
                "image": ""
              },
              {
                "name": "田野畑・潮吹き穴沖",
                "desc": "有名な潮吹き穴の沖合に広がる、豊かな海藻の森が魅力のポイント。ダンゴウオやフサギンポ、ケムシカジカなど冷水系のユニークな生物が豊富。水深は比較的浅く穏やかで、フォト派にも人気です。",
                "latitude": 39.89,
                "longitude": 141.93,
                "id": "p_1765713338_a111ac",
                "image": ""
              },
              {
                "name": "北山崎・ドーム",
                "desc": "海中洞窟とドーム状の地形が特徴の幻想的なポイント。光のカーテンが差し込む時間帯は特に美しく、神秘的な雰囲気の中で潜れます。ウミウシ類やイソギンチャクの仲間が多く、マクロ観察も楽しめます。",
                "latitude": 39.98,
                "longitude": 141.97,
                "id": "p_1765713338_a9bbb6",
                "image": ""
              },
              {
                "name": "田野畑・コブダイ岩",
                "desc": "特定の時期に大きなコブダイが見られることで有名な岩礁ポイント。他にもアザラシの目撃情報もあり、大物との遭遇が期待できます。水深は15m前後で、潮流も比較的穏やかですが、変化に富む地形です。",
                "latitude": 39.885,
                "longitude": 141.935,
                "id": "p_1765713338_4f0ecb",
                "image": ""
              },
              {
                "name": "北山崎・タワーロック",
                "desc": "海中からそびえ立つ独立した岩がランドマーク。その周りには魚影が濃く、イワシの群れやサワラなどの回遊魚が通ることがあります。ダイナミックな水中景観と豊かな生物相が魅力です。",
                "latitude": 39.97,
                "longitude": 141.98,
                "id": "p_1765713338_5de572",
                "image": ""
              }
            ]
          }
        ]
      },
      {
        "name": "伊豆半島",
        "type": "Zone",
        "description": "首都圏からのアクセスが良好な本州の主要ダイビングエリア。年間を通して多様な水中生物が生息し、沈船やダイナミックな地形、マクロ生物観察などバラエティ豊かなダイビングが楽しめる。",
        "id": "z_1765713338_7b4b00",
        "displayOrder": 3,
        "children": [
          {
            "name": "東伊豆海岸線（伊豆海洋公園・富戸など）",
            "description": "都心からのアクセスに優れ、穏やかなビーチとボートポイントが豊富。初心者からベテランまで楽しめる施設充実エリア。",
            "id": "a_1765713338_8cc637",
            "children": [
              {
                "name": "伊豆海洋公園 1番の根",
                "desc": "IOPの代表ポイント。色鮮やかなソフトコーラルに群れるキンギョハナダイが圧巻。カエルアンコウやウミウシなどマクロも豊富。水深10-25m、流れは比較的穏やか。",
                "latitude": 34.902,
                "longitude": 139.123,
                "id": "p_1765713338_9f7559",
                "image": ""
              },
              {
                "name": "伊豆海洋公園 砂地",
                "desc": "広大な砂地に点在する根にはハゼや甲殻類が多く生息。サカタザメやウミガメの目撃情報も。マクロ派に人気で、季節来遊魚の発見も楽しみ。水深15-30m、流れは穏やか。",
                "latitude": 34.9,
                "longitude": 139.121,
                "id": "p_1765713338_7081a7",
                "image": ""
              },
              {
                "name": "富戸 ヨコバマ",
                "desc": "穏やかな湾内で初心者から楽しめるビーチポイント。多様な地形と生物が魅力で、マクロから群れまで幅広い。カエルアンコウやウミウシ、アジの群れなど。水深5-18m、流れは少ない。",
                "latitude": 34.898,
                "longitude": 139.1,
                "id": "p_1765713338_a0c474",
                "image": ""
              },
              {
                "name": "富戸 ボラ前ビーチ",
                "desc": "ヨコバマから続く穏やかなビーチ。浅場にはカラフルなサンゴが広がり、幼魚の宝庫。クマノミや各種スズメダイ、マクロ生物も豊富。写真派や初心者におすすめ。水深3-15m、流れは緩やか。",
                "latitude": 34.897,
                "longitude": 139.099,
                "id": "p_1765713338_1876a6",
                "image": ""
              },
              {
                "name": "伊豆海洋公園 ブリマチ",
                "desc": "水深が深い沖合の根。回遊魚や群れを狙う上級者向けポイント。メジナやタカベの群れ、運が良ければワラサやブリも。ダイナミックな地形も特徴。水深25-40m、流れがある場合も。",
                "latitude": 34.905,
                "longitude": 139.128,
                "id": "p_1765713338_84dc4a",
                "image": ""
              }
            ]
          },
          {
            "name": "西伊豆地形（雲見・田子・大瀬崎など）",
            "description": "複雑な洞窟、アーチ、ケーブなどダイナミックな水中地形が魅力。魚影も濃く、写真派にも人気。",
            "id": "a_1765713338_223960",
            "children": [
              {
                "name": "雲見・牛着岩",
                "desc": "西伊豆の地形ダイビングを代表するポイント。複雑な洞窟、アーチ、クレパスが魅力で、差し込む光が幻想的な水中景観を作り出します。ウミウシやカエルアンコウなどのマクロ生物、イサキやタカベの群れが豊富。水深5～25m、比較的穏やかですが潮の影響を受けることも。",
                "latitude": 34.786,
                "longitude": 138.741,
                "id": "p_1765713338_8e72e4",
                "image": ""
              },
              {
                "name": "田子・フトネ",
                "desc": "外洋に面した独立根で、ダイナミックな地形と豊かな魚影が特徴。潮通しが良く、ブリやカンパチ、サメなどの回遊魚との遭遇チャンスが高い大物ポイントです。キンギョハナダイの群れやソフトコーラルの群生も見事。水深15～35m、流れが速くなるため中級者以上向け。",
                "latitude": 34.821,
                "longitude": 138.748,
                "id": "p_1765713338_b855ae",
                "image": ""
              },
              {
                "name": "大瀬崎・湾内",
                "desc": "非常に穏やかで透明度が高い、大瀬崎の代表的なポイント。初心者や講習にも最適で、四季折々のウミウシ、甲殻類、珍しい季節来遊魚などマクロ生物の宝庫です。水深5～18mと浅く、流れもほとんどないためじっくり観察可能。ナイトダイビングも人気。",
                "latitude": 35.038,
                "longitude": 138.751,
                "id": "p_1765713338_67028b",
                "image": ""
              },
              {
                "name": "大瀬崎・先端",
                "desc": "大瀬崎の突端に位置し、駿河湾の深場に繋がるダイナミックなドロップオフが特徴。イサキやキンギョハナダイの群れが圧巻で、深場では深海性の生物や珍しいサメ類との出会いも期待できます。水深10～40m超、流れが速くなることもあるため中級者以上向け。",
                "latitude": 35.039,
                "longitude": 138.75,
                "id": "p_1765713338_c6b0cf",
                "image": ""
              }
            ]
          },
          {
            "name": "南伊豆黒潮（神子元島・中木など）",
            "description": "黒潮の影響を受け透明度が高く、大物狙いの人気エリア。特に神子元島はハンマーヘッドシャークの群れで有名。",
            "id": "a_1765713338_636628",
            "children": [
              {
                "name": "神子元島 - カメ根",
                "desc": "神子元島の顔ともいえるハンマーヘッドシャークの回遊で世界的に有名なドリフトポイント。潮の流れが速いことが多いため、経験豊富なダイバー向きです。透明度が高い日は大群のハンマーが圧巻の光景を見せます。",
                "latitude": 34.02,
                "longitude": 138.935,
                "id": "p_1765713338_5e9c0a",
                "image": ""
              },
              {
                "name": "神子元島 - 2の根",
                "desc": "カメ根と並ぶ神子元島のメインポイントの一つ。こちらも高確率でハンマーヘッドシャークの群れに遭遇できます。水深が深く、時にはロウニンアジやイソマグロといった大型回遊魚も姿を見せる、ダイナミックな根です。",
                "latitude": 34.022,
                "longitude": 138.937,
                "id": "p_1765713338_da8911",
                "image": ""
              },
              {
                "name": "神子元島 - エビ根",
                "desc": "神子元島の北西にある大きな根で、ハンマーヘッドシャークはもちろん、カスザメやネコザメなどの底生サメ類、時にはモロコなども期待できます。複雑な根の地形も探索の魅力です。",
                "latitude": 34.025,
                "longitude": 138.93,
                "id": "p_1765713338_64dc69",
                "image": ""
              },
              {
                "name": "中木 - 大根",
                "desc": "中木を代表する沖合の根のポイント。イサキやタカベ、メジナなどの魚群が非常に濃く、一面を覆うほどの群れの壁は圧巻です。潮あたりが良い場所ではマクロ生物も豊富で、見どころ満載です。",
                "latitude": 34.615,
                "longitude": 138.875,
                "id": "p_1765713338_155c41",
                "image": ""
              },
              {
                "name": "中木 - 小横",
                "desc": "中木の湾内に位置し、比較的穏やかで初心者から楽しめるポイント。色とりどりのソフトコーラルが美しく、キンギョハナダイなどの小魚が群れています。じっくりとマクロ生物を探すのにも最適です。",
                "latitude": 34.61,
                "longitude": 138.87,
                "id": "p_1765713338_7dfb36",
                "image": ""
              }
            ]
          }
        ]
      },
      {
        "name": "伊豆大島",
        "type": "Zone",
        "description": "東京から高速船で約2時間以内とアクセスが良く、雄大な黒潮の影響を受けるため高透明度を誇る。ウミガメとの遭遇率が高く、ダイナミックな火山性の地形や、カラフルな魚の群れ、マクロ生物観察も楽しめる。特に秋～冬の透明度は抜群。",
        "id": "z_1765713338_e66721",
        "displayOrder": 4,
        "children": [
          {
            "name": "秋の浜・弘之浜",
            "description": "複雑な地形と豊かな生物層が魅力。マクロ派からワイド派まで楽しめる、大島を代表する人気ポイント。",
            "id": "a_1765713338_70b31a",
            "children": [
              {
                "name": "秋の浜メイン",
                "desc": "広大な砂地から始まるビーチポイント。エントリーしてすぐの岩礁帯には色鮮やかなソフトコーラルが群生し、ウミウシや甲殻類、幼魚の宝庫。カスザメや回遊魚も狙える。初心者からベテランまで楽しめる。水深5〜25m。",
                "latitude": 34.757,
                "longitude": 139.362,
                "id": "p_1765713338_555139",
                "image": ""
              },
              {
                "name": "秋の浜ドロップオフ",
                "desc": "秋の浜メインの沖に広がる、水深20m以深のドロップオフ。イサキやタカベの群れが圧巻で、マクロ生物も豊富。深場には珍しい生物が見られることもあり、中上級者向け。流れに注意が必要な場合も。水深20〜35m。",
                "latitude": 34.756,
                "longitude": 139.363,
                "id": "p_1765713338_7877dd",
                "image": ""
              },
              {
                "name": "秋の浜クレーン",
                "desc": "かつての港湾作業に使われたクレーンの残骸が水中に横たわる、フォトジェニックなポイント。構造物には多くの魚が群れ、ネンブツダイやソラスズメダイの群れが見事。ユニークな被写体を求めるダイバーに人気。水深15〜20m。",
                "latitude": 34.758,
                "longitude": 139.362,
                "id": "p_1765713338_05aa7a",
                "image": ""
              },
              {
                "name": "弘之浜沈船",
                "desc": "弘之浜の沖合いに沈む漁船が人気のポイント。船体にはソフトコーラルがびっしりと付き、多くの魚たちの住処に。ウミウシ、カエルアンコウなどマクロ生物も豊富で、じっくり観察するのに最適。水深15〜20m。",
                "latitude": 34.76,
                "longitude": 139.36,
                "id": "p_1765713338_33fdf9",
                "image": ""
              },
              {
                "name": "弘之浜砂地",
                "desc": "エントリーしてすぐ広がる砂地と点在する根が特徴。カスザメ、ヒラメ、コブダイなど様々な底生生物が観察できる。ウミウシの仲間も多く、マクロ派ダイバーに人気。のんびりとしたダイビングが楽しめる。水深5〜15m。",
                "latitude": 34.761,
                "longitude": 139.359,
                "id": "p_1765713338_0c33b3",
                "image": ""
              }
            ]
          },
          {
            "name": "野田浜・ケイカイ",
            "description": "高い透明度とダイナミックな地形が特徴。アーチや洞窟探検もでき、回遊魚の群れも見られる可能性が高い。",
            "id": "a_1765713338_375304",
            "children": [
              {
                "name": "野田浜ビーチ",
                "desc": "エントリーしやすい砂地のビーチポイント。幼魚の群れや甲殻類、ウミウシなどマクロ生物が豊富。穏やかな時が多く、初心者から楽しめる。水深は比較的浅め。",
                "latitude": 34.721,
                "longitude": 139.366,
                "id": "p_1765713338_67b2a0",
                "image": ""
              },
              {
                "name": "ケイカイ・ドロップオフ",
                "desc": "野田浜沖合に広がるダイナミックなドロップオフ。大きな岩棚や洞窟があり、地形が面白い。イサキやタカベの群れ、運が良ければ大型回遊魚も見られる。流れが出やすい。",
                "latitude": 34.722,
                "longitude": 139.363,
                "id": "p_1765713338_8d4960",
                "image": ""
              },
              {
                "name": "ケイカイ・独立根",
                "desc": "ケイカイエリア内にある独立した根。根の周りにはキンギョハナダイやイサキの群れが渦巻く。アオウミガメとの遭遇率も高い。潮通しが良く、群れを狙うのに最適。",
                "latitude": 34.723,
                "longitude": 139.362,
                "id": "p_1765713338_0fcaef",
                "image": ""
              },
              {
                "name": "野田浜・砂地マクロガーデン",
                "desc": "野田浜の沖合いに広がる砂地エリア。水深15～20m付近。ハゼ類や甲殻類、季節来遊魚など、珍しいマクロ生物の宝庫。じっくり探すダイビングが好きな方におすすめ。",
                "latitude": 34.72,
                "longitude": 139.365,
                "id": "p_1765713338_147246",
                "image": ""
              }
            ]
          },
          {
            "name": "王の浜・差木地",
            "description": "比較的波が穏やかで、初心者にも優しいエリア。砂地と根が広がり、甲殻類やハゼ類などのマクロ生物が豊富。",
            "id": "a_1765713338_43c5e3",
            "children": [
              {
                "name": "王の浜ビーチ",
                "desc": "穏やかなビーチエントリーポイント。浅場は砂地と転石が広がり、様々なハゼ類やカニ・エビなどのマクロ生物が豊富。深場には小さな根や藻場もあり、幼魚の群れも見られます。水深-5m～-18m、流れは通常緩やかです。",
                "latitude": 34.707,
                "longitude": 139.38,
                "id": "p_1765713338_5a2c43",
                "image": ""
              },
              {
                "name": "王の浜・砂地リゾート",
                "desc": "広大な砂地が広がるマクロ天国。カスザメ、ヒラメ、各種共生ハゼ類など砂地の固有種が観察できます。コモンシコロウミウシなどの珍しいウミウシも出現。のんびり生物を探すのに最適。水深-10m～-20m、通常は穏やかです。",
                "latitude": 34.708,
                "longitude": 139.381,
                "id": "p_1765713338_26baa7",
                "image": ""
              },
              {
                "name": "差木地ビーチ",
                "desc": "こちらもビーチエントリーで比較的穏やかな湾内。手付かずのサンゴ群生が見られ、その周りにはキンギョハナダイやスズメダイの群れが乱舞します。マクロ派にもワイド派にも楽しめる多様性のあるポイント。水深-5m～-15m、流れは少ないです。",
                "latitude": 34.717,
                "longitude": 139.388,
                "id": "p_1765713338_b1d427",
                "image": ""
              },
              {
                "name": "差木地・砂地根",
                "desc": "差木地ビーチの沖合いに点在する複数の根と砂地の複合ポイント。根周りにはムチカラマツやイソバナがあり、甲殻類やカラフルなウミウシが見られます。砂地ではハゼやタツノオトシゴも探せます。水深-12m～-25m、潮通しが良い場所もあります。",
                "latitude": 34.716,
                "longitude": 139.386,
                "id": "p_1765713338_aefc73",
                "image": ""
              }
            ]
          },
          {
            "name": "トウシキ・筆島周辺（ボート）",
            "description": "ボートアクセスで、地形の面白さと回遊魚の群れが魅力。潮流に乗って大物との遭遇も期待できる。",
            "id": "a_1765713338_7e243f",
            "children": [
              {
                "name": "筆島（トウシキ・筆島周辺）",
                "desc": "伊豆大島を代表する雄大な水中アーチが圧巻のポイント。アーチ周辺にはイサキやタカベの群れが乱舞し、潮通しの良い沖ではカンパチなどの回遊魚との遭遇も期待できます。水深15-30m、流れがあることも。",
                "latitude": 34.695,
                "longitude": 139.38,
                "id": "p_1765713338_35927b",
                "image": ""
              },
              {
                "name": "筆島ホール",
                "desc": "筆島の南側にある、光が差し込む神秘的なホール。洞窟内にはハタンポの群れが群生し、幻想的な光景を作り出します。暗がりにはウツボやイセエビなども。水深10-20m、比較的穏やかで初心者から楽しめます。",
                "latitude": 34.694,
                "longitude": 139.381,
                "id": "p_1765713338_a00961",
                "image": ""
              },
              {
                "name": "トウシキ沖",
                "desc": "トウシキ湾の沖合に広がる砂地と根が点在するエリア。カスザメやネコザメ、エイといった底生生物との出会いが豊富で、季節によってはツムブリやカンパチの群れも期待できます。水深10-25m、比較的穏やかな日が多いです。",
                "latitude": 34.698,
                "longitude": 139.386,
                "id": "p_1765713338_8790db",
                "image": ""
              },
              {
                "name": "筆島アーチ",
                "desc": "筆島本体から少し離れた場所にある独立した水中アーチ。地形好きにはたまらないダイナミックな構造で、アーチ下にはアカヒメジの群れが、周辺ではカメやサザナミヤッコが見られることも。水深12-25m。",
                "latitude": 34.693,
                "longitude": 139.382,
                "id": "p_1765713338_22f8e8",
                "image": ""
              }
            ]
          }
        ]
      },
      {
        "name": "八丈島",
        "type": "Zone",
        "description": "東京からアクセス可能ながら、黒潮のど真ん中に位置するため、一年を通して高透明度（平均20m以上）を誇る。巨大なアオウミガメとの遭遇率が非常に高く、固有種や南方系の珍しい大物・群れが魅力。ダイナミックな火山性のアーチや地形も楽しめる。",
        "id": "z_1765713338_9a1288",
        "displayOrder": 5,
        "children": [
          {
            "name": "ナズマド周辺",
            "description": "八丈島を代表するドリフトダイビングポイント。激しい潮流の中、カンパチやイソマグロなどの回遊魚、時にはハンマーヘッドも狙える上級者向け。ダイナミックな地形も魅力です。",
            "id": "a_1765713338_0278c7",
            "children": [
              {
                "name": "ナズマド・ドロップオフ",
                "desc": "八丈島を代表するダイナミックな地形。切り立ったドロップオフには、キンギョハナダイの群れが乱舞し、カスミチョウチョウウオも見られます。大物狙いなら回遊魚やハンマーヘッドのチャンスも。水深は深く、流れに注意が必要です。",
                "latitude": 33.092,
                "longitude": 139.78,
                "id": "p_1765713338_dbc031",
                "image": ""
              },
              {
                "name": "ナズマド・アーチ",
                "desc": "入江の奥深くにある自然が作り出した見事なアーチ。光の差し込みが美しく、フォトジェニックな景観が広がります。アーチの下にはネコザメやウミガメが休んでいることも。比較的穏やかで観察しやすいポイントです。",
                "latitude": 33.09,
                "longitude": 139.778,
                "id": "p_1765713338_daa539",
                "image": ""
              },
              {
                "name": "ナズマド・一の根",
                "desc": "沖合に位置する独立した根。根の周りにはアオウミガメが常駐し、カメとの遭遇率が高いポイントです。時にはイソマグロやカンパチなどの回遊魚が高速で通過することも。流れが発生しやすいので中級者以上におすすめします。",
                "latitude": 33.093,
                "longitude": 139.782,
                "id": "p_1765713338_8789a6",
                "image": ""
              },
              {
                "name": "ナズマド・宮前",
                "desc": "ナズマド湾内の比較的浅く穏やかなエリア。初心者やブランクダイバーにも安心なポイントです。サンゴが豊かで、チョウチョウウオやスズメダイの群れ、小さなマクロ生物の観察が楽しめます。エキジット前の安全停止にも最適です。",
                "latitude": 33.088,
                "longitude": 139.776,
                "id": "p_1765713338_eb3b18",
                "image": ""
              },
              {
                "name": "ナズマド・局長北",
                "desc": "局長ドロップオフの北側に位置するポイント。潮通しが良く、イソマグロやヒラマサなどの大物回遊魚の遭遇率が高いです。水深は深く、流れの変化に注意が必要ですが、見応えのあるダイビングが期待できます。",
                "latitude": 33.094,
                "longitude": 139.781,
                "id": "p_1765713338_de1b01",
                "image": ""
              }
            ]
          },
          {
            "name": "八重根・底土周辺",
            "description": "港周辺でエントリーしやすく、初心者から楽しめる穏やかなエリア。カラフルな熱帯魚の群れや、ウミガメとの遭遇率も高い。地形も複雑で、ワイドもマクロも充実しています。",
            "id": "a_1765713338_bbbfed",
            "children": [
              {
                "name": "八重根・大ドロップ",
                "desc": "八重根の沖合に広がるダイナミックなドロップオフ。イソマグロの回遊や、時期によってはマンタとの遭遇も期待できる。水深は20mから60m以上まであり、流れがある場合も。",
                "latitude": 33.118,
                "longitude": 139.783,
                "id": "p_1765713338_9b53fe",
                "image": ""
              },
              {
                "name": "八重根・沈船",
                "desc": "八重根港の沖合に沈む戦車揚陸艦。魚礁となっており、キンメダイやハタ類、時にはイソマグロなども見られる。水深は20m前後で、水中撮影にも適している。",
                "latitude": 33.12,
                "longitude": 139.78,
                "id": "p_1765713338_d6f0d9",
                "image": ""
              },
              {
                "name": "底土・八重根ポイント",
                "desc": "底土港と八重根港の中間に位置し、両方のポイントからアプローチ可能。テーブルサンゴが広がり、カラフルな熱帯魚が多く生息。水深は5mから20m程度で、初心者にもおすすめ。",
                "latitude": 33.125,
                "longitude": 139.775,
                "id": "p_1765713338_e45d6e",
                "image": ""
              },
              {
                "name": "底土・水路",
                "desc": "底土港内を湾曲するように広がるポイント。根の周りにイサキの群れや、カスミチョウチョウウオなどの小魚が群れる。水深は10mから25mで、比較的穏やかな流れが多い。",
                "latitude": 33.13,
                "longitude": 139.77,
                "id": "p_1765713338_60d5c3",
                "image": ""
              },
              {
                "name": "底土・沖の根",
                "desc": "底土港から沖合にある大きな根。カンパチやヒメジの群れ、時にはマダラエイなど大物との遭遇も期待できる。水深は20mから40mで、流れが強くなることもある。",
                "latitude": 33.135,
                "longitude": 139.765,
                "id": "p_1765713338_1a98ac",
                "image": ""
              }
            ]
          },
          {
            "name": "乙千代ヶ浜周辺",
            "description": "穏やかな湾内で、砂地とサンゴ礁が広がる癒し系のポイント。ウミガメとの遭遇率が非常に高く、のんびりと泳ぐ姿を観察できます。マクロ生物も豊富で写真派にも人気です。",
            "id": "a_1765713338_221310",
            "children": [
              {
                "name": "乙千代ヶ浜",
                "desc": "八丈島で最も有名で人気のあるダイビングポイント。沈船やテトラポッドがあり、キンギョハナダイやイサキの群れが豊富。運が良ければアカウミガメにも会える。水深は浅い場所からある。",
                "latitude": 33.0635,
                "longitude": 139.762,
                "id": "p_1765713338_7fc2ac",
                "image": ""
              },
              {
                "name": "八重根",
                "desc": "乙千代ヶ浜の北側に位置し、こちらも人気のポイント。大きな根が点在し、イソマグロやカンパチなどの回遊魚が見られるチャンスがある。地形も面白く、洞窟やアーチも。",
                "latitude": 33.07,
                "longitude": 139.759,
                "id": "p_1765713338_1ebee1",
                "image": ""
              },
              {
                "name": "ナズマド",
                "desc": "八丈島北部にある、ダイナミックな地形が魅力のポイント。大きな岩や洞窟があり、探検気分を味わえる。ハナダイの群れや、運が良ければサメなどの大物にも出会える可能性がある。",
                "latitude": 33.0795,
                "longitude": 139.7525,
                "id": "p_1765713338_4ecf2e",
                "image": ""
              },
              {
                "name": "唐人崎",
                "desc": "八丈島南部にある、比較的穏やかなダイビングポイント。サンゴも多く、色とりどりの熱帯魚を観察できる。地形も緩やかで、初心者にもおすすめ。ウミガメにも出会いやすい。",
                "latitude": 33.045,
                "longitude": 139.768,
                "id": "p_1765713338_b0c406",
                "image": ""
              },
              {
                "name": "底土",
                "desc": "八丈島北東部にある、港に隣接したダイビングポイント。穏やかな湾内なので、初心者やブランクダイバーにも安心。熱帯魚が多く、マクロ生物も豊富に見られる。",
                "latitude": 33.085,
                "longitude": 139.757,
                "id": "p_1765713338_d8a2ab",
                "image": ""
              }
            ]
          },
          {
            "name": "小岩戸・大岩戸周辺",
            "description": "北部のダイナミックな地形が特徴のエリア。複雑に入り組んだ洞窟やアーチ、クレバスを巡る探検ダイビングが楽しめます。光のシャワーが美しいケーブもあり、地形派必見です。",
            "id": "a_1765713338_947ec0",
            "children": [
              {
                "name": "小岩戸・大岩戸",
                "desc": "八丈島の西側に位置する人気ポイント。大きな根が点在し、カメやハナダイ、キンギョハナダイが群れている。水深は最大25m程度で、流れは穏やかなことが多い。冬場はブリなどの回遊魚も見られる。",
                "latitude": 33.06,
                "longitude": 139.74,
                "id": "p_1765713338_6959a4",
                "image": ""
              },
              {
                "name": "八丈小岩戸",
                "desc": "小岩戸・大岩戸エリアの北側にあるポイント。洞窟やアーチがあり、地形ダイブが楽しめる。キンメモドキの群れや、根に住み着くハタ類、タカサゴなどが特徴。水深は15mから25m。",
                "latitude": 33.065,
                "longitude": 139.735,
                "id": "p_1765713338_702139",
                "image": ""
              },
              {
                "name": "八丈大岩戸",
                "desc": "小岩戸・大岩戸エリアの南側。根の周りを回遊する魚が多く、特にイサキやタカサゴの群れが印象的。岩陰にはウツボやカニなども見られる。水深は20m前後。",
                "latitude": 33.055,
                "longitude": 139.745,
                "id": "p_1765713338_4aa728",
                "image": ""
              },
              {
                "name": "神拝（かみはえ）",
                "desc": "小岩戸・大岩戸の沖合に位置するドロップオフ。水深は深く、30mを超える。キンギョハナダイの絨毯や、時期によってはマグロなどの大物が見られることもある。流れがある場合も。",
                "latitude": 33.05,
                "longitude": 139.75,
                "id": "p_1765713338_b320d2",
                "image": ""
              },
              {
                "name": "底物根（そこものね）",
                "desc": "小岩戸・大岩戸の根の周辺にある、名前の通り根魚が多いポイント。カンモンハタやスジアラ、イシダイなどが狙える。水深は15mから20mで、比較的浅く初心者にもおすすめ。",
                "latitude": 33.062,
                "longitude": 139.742,
                "id": "p_1765713338_bdd96d",
                "image": ""
              }
            ]
          }
        ]
      },
      {
        "name": "小笠原諸島",
        "type": "Zone",
        "description": "世界自然遺産に登録された手付かずの自然が残る秘境。高い透明度と固有種の多さ、大型回遊魚やクジラ・イルカとの遭遇率が高いことが特徴。アクセスは限られるが、唯一無二の体験ができる。",
        "id": "z_1765713338_712b68",
        "displayOrder": 6,
        "children": [
          {
            "name": "兄島・ケータ列島周辺",
            "description": "父島北部から兄島列島にかけて、ダイナミックな地形、沈船、洞窟が点在。大物回遊魚や魚群との遭遇率も高いエリアです。",
            "id": "a_1765713338_333475",
            "children": [
              {
                "name": "兄島ダイナミック",
                "desc": "兄島南東に位置する、ドロップオフが魅力のポイント。キンギョハナダイの群れや、運が良ければカメ、ハタ類なども見られる。水深は最大30m、流れは中程度。",
                "latitude": 26.948,
                "longitude": 142.191,
                "id": "p_1765713338_83ae87",
                "image": ""
              },
              {
                "name": "ケータ列島・マンタシティ",
                "desc": "ケータ列島周辺の海域で、マンタのクリーニングステーションとして有名。巨大なマンタが優雅に泳ぎ回る姿は圧巻。水深は20m前後、流れは緩やか。",
                "latitude": 26.94,
                "longitude": 142.2,
                "id": "p_1765713338_1abd19",
                "image": ""
              },
              {
                "name": "沈船ポイント（兄島沖）",
                "desc": "兄島沖に沈む沈船は、人工漁礁となり様々な生物の住処となっている。ハナダイやスズメダイの群れ、そして隠れているナマコマル、タツノオトシゴなども見られる。水深25m。",
                "latitude": 26.946,
                "longitude": 142.195,
                "id": "p_1765713338_561518",
                "image": ""
              },
              {
                "name": "ジョンソン海峡（西側）",
                "desc": "兄島と東島を隔てるジョンソン海峡の西側。潮通しが良く、回遊魚の群れや、運が良ければイルカに出会えることも。水深は30m以上、流れは速い場合がある。",
                "latitude": 26.935,
                "longitude": 142.18,
                "id": "p_1765713338_027a0f",
                "image": ""
              },
              {
                "name": "ケータ列島・イエローフィン",
                "desc": "ケータ列島南西部に位置し、サンゴが美しく、熱帯魚が豊富。イエローフィン・バラクーダの群れが見られることで知られる。水深15m〜25m、流れは緩やか。",
                "latitude": 26.938,
                "longitude": 142.198,
                "id": "p_1765713338_823ca0",
                "image": ""
              }
            ]
          },
          {
            "name": "南島・父島南部エリア",
            "description": "国指定天然記念物の南島をはじめ、ユニークな地形、固有種の観察が魅力。入り組んだ洞窟や白い砂地が美しいエリアです。",
            "id": "a_1765713338_b1f9e4",
            "children": [
              {
                "name": "南島・扇池",
                "desc": "天然のプールのような景観で、無数の小魚が群れをなす。浅場からドロップオフがあり、ウミガメとの遭遇率も高い。透明度抜群で、幻想的な水中散歩が楽しめる。流れは穏やかなことが多い。",
                "latitude": 26.94,
                "longitude": 142.16,
                "id": "p_1765713338_456bea",
                "image": ""
              },
              {
                "name": "南島・青の洞窟",
                "desc": "洞窟の中に差し込む太陽光が海を神秘的な青色に染める。洞窟内は浅く、光のカーテンが幻想的。洞窟の外にはドロップオフがあり、様々な魚たちが見られる。流れは洞窟内は穏やかだが、外は時々速くなる。",
                "latitude": 26.93,
                "longitude": 142.17,
                "id": "p_1765713338_26ee22",
                "image": ""
              },
              {
                "name": "父島南部・ジョン万ビーチ",
                "desc": "ビーチエントリーで気軽に潜れるポイント。サンゴ礁が広がり、熱帯魚が豊富。浅場でも様々な生物が見られ、初心者にもおすすめ。時々、マンタやサメが現れることもある。",
                "latitude": 27.04,
                "longitude": 142.19,
                "id": "p_1765713338_eb87c2",
                "image": ""
              },
              {
                "name": "父島南部・ドロップオフ",
                "desc": "水深20mから一気に落ち込むダイナミックな地形。壁にはキンギョハナダイが群れ、ハタタテダイやツバメウオなども見られる。流れは速いこともあり、ドリフトダイビングが中心。",
                "latitude": 27.03,
                "longitude": 142.18,
                "id": "p_1765713338_737286",
                "image": ""
              },
              {
                "name": "父島南部・沈船ポイント",
                "desc": "小笠原近海に沈む漁船。船体には様々な魚やウミウシが付着し、生物の宝庫となっている。浅場と深場があり、ダイバーのスキルに合わせて楽しめる。流れは比較的穏やか。",
                "latitude": 27.02,
                "longitude": 142.2,
                "id": "p_1765713338_7e7446",
                "image": ""
              }
            ]
          },
          {
            "name": "母島列島全域",
            "description": "父島から南へ約50km。手つかずの自然が残り、独特の固有種、サンゴ礁、マクロ生物、地形ダイビングが楽しめるエリアです。",
            "id": "a_1765713338_86e752",
            "children": [
              {
                "name": "乳房山沖",
                "desc": "地形がダイナミックで、アーチやドロップオフが楽しめる。キンギョハナダイやハナゴンベ、時にはカメも見られる。水深は15m〜30m。流れは穏やかなことが多い。",
                "latitude": 26.63,
                "longitude": 142.17,
                "id": "p_1765713338_58ad41",
                "image": ""
              },
              {
                "name": "北村１",
                "desc": "イソマグロの群れが出やすいポイント。根にはキンギョハナダイやスズメダイが豊富。水深は20m〜35m。流れがある場合もあるので注意。",
                "latitude": 26.7,
                "longitude": 142.18,
                "id": "p_1765713338_3438df",
                "image": ""
              },
              {
                "name": "南の根",
                "desc": "テーブルサンゴやソフトコーラルが群生する美しいポイント。チョウチョウウオやスズメダイなど、カラフルな魚たちが多数。水深は10m〜25m。流れは穏やか。",
                "latitude": 26.6,
                "longitude": 142.16,
                "id": "p_1765713338_16f1c3",
                "image": ""
              },
              {
                "name": "東の洞窟",
                "desc": "光が差し込む神秘的な洞窟。洞窟内ではキンメモドキなどが群れ、外にはハタタテダイなどが泳ぐ。水深は18m〜30m。流れはほとんどない。",
                "latitude": 26.65,
                "longitude": 142.19,
                "id": "p_1765713338_a19d91",
                "image": ""
              },
              {
                "name": "沖ノ島",
                "desc": "ツバメウオの群れが有名。その他、バラクーダやカンパチなど回遊魚も期待できる。水深は20m〜40m。潮の流れが速いことがあるので経験者向け。",
                "latitude": 26.75,
                "longitude": 142.2,
                "id": "p_1765713338_8cf502",
                "image": ""
              }
            ]
          },
          {
            "name": "聟島・媒島列島方面（北部遠征）",
            "description": "遠征を要する北部エリア。高い透明度と手付かずの海中景観が魅力。回遊魚や大型生物の群れに出会える可能性が高いです。",
            "id": "a_1765713338_91ee5f",
            "children": [
              {
                "name": "聟島・南の根",
                "desc": "聟島列島南部に位置する、ダイナミックな地形が魅力のポイント。ドロップオフにはハナダイやキンギョハナダイの群れが見られ、運が良ければ回遊魚との出会いも期待できる。水深は25m前後。",
                "latitude": 27.08,
                "longitude": 142.19,
                "id": "p_1765713338_5f2c94",
                "image": ""
              },
              {
                "name": "媒島・沈船ポイント",
                "desc": "媒島沖に沈む船がポイント。船体には様々な海洋生物が住み着き、ウミウシやテヅルモアンモナイトなどを観察できる。水深は15m〜20mで、初心者にもおすすめ。",
                "latitude": 27.15,
                "longitude": 142.25,
                "id": "p_1765713338_44dcb9",
                "image": ""
              },
              {
                "name": "祖父岳・洞窟",
                "desc": "祖父岳の断崖下にある洞窟。光が差し込む様子が幻想的で、水中カメラマンにも人気。洞内では、アカマツカサやハタンポなど、隠れている生物を探すのも楽しい。水深は10m〜20m。",
                "latitude": 27.05,
                "longitude": 142.22,
                "id": "p_1765713338_42d264",
                "image": ""
              },
              {
                "name": "孫島・カメさんハーバー",
                "desc": "孫島周辺の穏やかな湾内。アオウミガメが頻繁に姿を見せるため、この名前がついた。水深も浅く、のんびりとウミガメとのツーショットを楽しむことができる。水深は5m〜15m。",
                "latitude": 27.18,
                "longitude": 142.2,
                "id": "p_1765713338_f4ffbf",
                "image": ""
              },
              {
                "name": "母島・北西の根",
                "desc": "母島北西部に位置する、ダイナミックな根。水深は20m〜30m。キンギョハナダイやハナダイの群れに加え、時期によってはイソマグロやロウニンアジなどの回遊魚も期待できる。",
                "latitude": 26.85,
                "longitude": 142.1,
                "id": "p_1765713338_7babc8",
                "image": ""
              }
            ]
          }
        ]
      },
      {
        "name": "紀伊半島（串本など）",
        "type": "Zone",
        "description": "本州最南端に位置し、黒潮の影響を強く受けるため、熱帯魚と温帯魚が混在するユニークな生態系を持つ。美しいサンゴ礁（本州最大規模）やソフトコーラル、洞窟などの地形も魅力。",
        "id": "z_1765713338_f3169c",
        "displayOrder": 7,
        "children": [
          {
            "name": "串本",
            "description": "本州最南端。世界最北限のテーブルサンゴ群落が広がり、回遊魚や多様な生態系が魅力。沈船や地形ポイントも。",
            "id": "a_1765713338_c613fd",
            "children": [
              {
                "name": "串本 備前",
                "desc": "串本の代表的なポイント。大きな根が点在し、マクロから回遊魚まで多様な生物が見られる。水深は15m〜30m。運が良ければウミガメとの出会いも。",
                "latitude": 33.4583,
                "longitude": 135.7739,
                "id": "p_1765713338_c75328",
                "image": ""
              },
              {
                "name": "串本 沖の島",
                "desc": "透明度抜群で、サンゴや熱帯魚の宝庫。カメやハナダイの仲間も多く、写真撮影にも最適。水深は10m〜25m。流れは穏やかなことが多い。",
                "latitude": 33.4639,
                "longitude": 135.7672,
                "id": "p_1765713338_34bfc1",
                "image": ""
              },
              {
                "name": "串本 cypress cypress",
                "desc": "地形が面白く、アーチやクレバスが点在。キンギョハナダイやスズメダイの群れが美しい。水深は18m〜35m。流れがある場合もある。",
                "latitude": 33.457,
                "longitude": 135.7745,
                "id": "p_1765713338_82864e",
                "image": ""
              },
              {
                "name": "串本 児島",
                "desc": "初心者にもおすすめのポイント。水深が浅く、穏やかな海況。イソギンチャク畑や、そこに集まるクマノミの様子が観察できる。水深は5m〜15m。",
                "latitude": 33.46,
                "longitude": 135.773,
                "id": "p_1765713338_c82d01",
                "image": ""
              },
              {
                "name": "串本 GINS",
                "desc": "水深があり、色鮮やかなソフトコーラルが広がる。ハナダイやベラなど、様々な魚が舞う。水深は20m〜40m。流れに注意が必要な場合も。",
                "latitude": 33.4555,
                "longitude": 135.775,
                "id": "p_1765713338_ac50e2",
                "image": ""
              }
            ]
          },
          {
            "name": "白浜",
            "description": "円月島で有名なリゾート地。ソフトコーラルが美しい海域や、沈船ポイント、マクロ生物観察も楽しめる。",
            "id": "a_1765713338_26e862",
            "children": [
              {
                "name": "白浜沈船",
                "desc": "かつて漁船として使われていた沈船が、今では魚たちの住処。キンギョハナダイやキンメモドキの群れ、時にはタコやウツボも見られます。水深は浅いところで10m、沈船の底は20m程度。流れは穏やかなことが多いです。",
                "latitude": 33.6735,
                "longitude": 135.352,
                "id": "p_1765713338_1df285",
                "image": ""
              },
              {
                "name": "グラスワールド",
                "desc": "名前の通り、水面がきれいで透明度が高い日が多いポイント。色とりどりのソフトコーラルが広がり、ハナダイやスズメダイなど小型の魚たちが群れています。水深は15m前後で、流れもほとんどないため初心者にも安心です。",
                "latitude": 33.67,
                "longitude": 135.355,
                "id": "p_1765713338_ce30c4",
                "image": ""
              },
              {
                "name": "ヘルス",
                "desc": "白浜の沖合に位置する、ダイナミックな地形が魅力のポイント。大きな根があり、キンギョハナダイの群れが圧巻です。運が良ければ回遊魚に出会えることも。水深は20m前後、流れがある場合もあります。",
                "latitude": 33.675,
                "longitude": 135.348,
                "id": "p_1765713338_c03f61",
                "image": ""
              },
              {
                "name": "ニシヤ",
                "desc": "白浜の湾内にある、手軽に潜れるポイント。サンゴやイソギンチャクが多く、カラフルな熱帯魚たちがたくさん見られます。水深は10m前後で、流れもほとんどなく、体験ダイビングやブランクダイバーにおすすめです。",
                "latitude": 33.672,
                "longitude": 135.358,
                "id": "p_1765713338_a2b67d",
                "image": ""
              },
              {
                "name": "ツネキ",
                "desc": "白浜の沖合にある、水深25mほどのダイナミックな地形のポイント。大きな岩があり、キンギョハナダイやスズメダイの群れ、時にはサメやウミガメが見られることも。流れがある場合があるので注意が必要です。",
                "latitude": 33.674,
                "longitude": 135.345,
                "id": "p_1765713338_87a8df",
                "image": ""
              }
            ]
          },
          {
            "name": "須江",
            "description": "紀伊半島の隠れた名所。高い透明度と複雑な地形、豊かなソフトコーラルが特徴。冬季はダンゴウオの人気が高い。",
            "id": "a_1765713338_46d3d0",
            "children": [
              {
                "name": "須江内浦ビーチ",
                "desc": "初心者から上級者まで楽しめる穏やかなビーチ。サンゴや熱帯魚、ウミウシなどが見られ、水深も浅いので安心して潜れます。",
                "latitude": 33.47,
                "longitude": 135.78,
                "id": "p_1765713338_e7ab1e",
                "image": ""
              },
              {
                "name": "住崎",
                "desc": "内浦ビーチの沖合にあるドロップオフ。キンメモドキの群れやハナダイ、時には大型魚の姿も。水深は20m前後。",
                "latitude": 33.475,
                "longitude": 135.785,
                "id": "p_1765713338_2f0c2a",
                "image": ""
              },
              {
                "name": "大根",
                "desc": "須江を代表する人気スポット。根の周りに魚が群れ、ハナダイやアジ、イサキなどを多く見られます。水深は15m〜30m。",
                "latitude": 33.472,
                "longitude": 135.778,
                "id": "p_1765713338_39d798",
                "image": ""
              },
              {
                "name": "根際（ねぎわ）",
                "desc": "大根の沖にあるポイント。水深がやや深くなり、大根とは違った生物が見られることも。流れがある場合も。",
                "latitude": 33.473,
                "longitude": 135.777,
                "id": "p_1765713338_5bdbb7",
                "image": ""
              },
              {
                "name": "色砂（いろすな）",
                "desc": "砂地が広がるポイント。コブシメやネコザメ、タコなど、砂地に住む生物を探すのが楽しい。水深は10m〜20m。",
                "latitude": 33.471,
                "longitude": 135.782,
                "id": "p_1765713338_e11421",
                "image": ""
              }
            ]
          },
          {
            "name": "見老津",
            "description": "ダイナミックなアーチや洞窟などの地形が魅力。キンギョハナダイなどの群れや大物遭遇のチャンスも。",
            "id": "a_1765713338_e42088",
            "children": [
              {
                "name": "見老津　南の根",
                "desc": "見老津湾の南側に位置する、人気のダイビングポイント。水深は5m〜20m。ソフトコーラルが群生し、キンギョハナダイやスズメダイ、イサキの群れが見られます。流れは穏やかなことが多いですが、潮の速さによって多少変わります。初心者からベテランまで楽しめるスポットです。",
                "latitude": 33.48,
                "longitude": 135.79,
                "id": "p_1765713338_16125b",
                "image": ""
              },
              {
                "name": "見老津　沈船",
                "desc": "湾内に沈む人工漁礁（沈船）ポイント。水深は10m〜25m。船体には魚礁が形成され、タマンやイシダイ、時にはハタ類なども見られます。沈船の周りにはネコザメが隠れていることも。地形的な面白さと、多様な魚との出会いが魅力です。",
                "latitude": 33.485,
                "longitude": 135.785,
                "id": "p_1765713338_aa6280",
                "image": ""
              },
              {
                "name": "見老津　潮通し",
                "desc": "湾外に面した、潮通しの良いポイント。水深は15m〜30m。潮に乗って回遊魚（カンパチ、ツムブリなど）がやってくることがあり、ダイナミックな水中景観が楽しめます。ソフトコーラルも多く、色彩豊かな海中世界が広がっています。流れがある場合があるので注意が必要です。",
                "latitude": 33.475,
                "longitude": 135.795,
                "id": "p_1765713338_93fcce",
                "image": ""
              },
              {
                "name": "見老津　アーチ",
                "desc": "湾内の水深5m〜15mにある、天然のアーチが特徴的なポイント。アーチをくぐったり、その周辺を探索したりと、地形的な面白さがあります。キンギョハナダイや、小さな甲殻類、ウミウシなども観察できます。透明度が高ければ、光が差し込む様子も美しいです。",
                "latitude": 33.482,
                "longitude": 135.788,
                "id": "p_1765713338_33e7fa",
                "image": ""
              },
              {
                "name": "見老津　ハナダイの根",
                "desc": "キンギョハナダイの群れが特に美しい、見老津でも人気のポイント。水深10m〜20m。ソフトコーラルに囲まれた根の周りを、無数のキンギョハナダイが舞う光景は圧巻です。イサキやスズメダイなども多く、賑やかな水中世界が広がります。流れは穏やかな日が多いです。",
                "latitude": 33.478,
                "longitude": 135.792,
                "id": "p_1765713338_41c42b",
                "image": ""
              }
            ]
          }
        ]
      },
      {
        "name": "奄美大島",
        "type": "Zone",
        "description": "透明度の高い海と、世界自然遺産登録された豊かな自然が魅力。サンゴ礁と熱帯魚が多く、特に冬から春にかけて見られる「ネムリブカ（サメ）」の群れや、冬のザトウクジラ遭遇が有名。ウミウシなどのマクロ生物も豊富で、年間を通して楽しめる。",
        "id": "z_1765713338_5cbfe5",
        "displayOrder": 8,
        "children": [
          {
            "name": "大島海峡エリア（瀬戸内町周辺）",
            "description": "加計呂麻島など離島との間、複雑な地形と潮流が生み出すダイナミックな水中世界。大物回遊魚からマクロまで豊富で、ドリフトダイビングも堪能できます。",
            "id": "a_1765713338_98c404",
            "children": [
              {
                "name": "大島海峡エリア - ヨナラ水道",
                "desc": "大島海峡の潮流がぶつかるポイント。マンタのクリーニングステーションとして有名で、運が良ければシュモクザメも。水深は15m前後、流れは比較的強い。",
                "latitude": 28.16,
                "longitude": 129.44,
                "id": "p_1765713338_2dd0fd",
                "image": ""
              },
              {
                "name": "大島海峡エリア - 倉崎",
                "desc": "イソマグロの回遊が見られる定番ポイント。地形も面白く、アーチや洞窟もあります。水深は5m〜20m、流れは穏やかなことが多い。",
                "latitude": 28.18,
                "longitude": 129.45,
                "id": "p_1765713338_4a37f1",
                "image": ""
              },
              {
                "name": "大島海峡エリア - サービス",
                "desc": "キンギョハナダイの群れが美しいポイント。水中ポストもあり、ユニークな記念撮影も可能。水深は10m〜25m、流れは緩やか。",
                "latitude": 28.19,
                "longitude": 129.43,
                "id": "p_1765713338_9b2aeb",
                "image": ""
              },
              {
                "name": "大島海峡エリア - 瀬相",
                "desc": "サンゴが広がる癒しのポイント。色とりどりの熱帯魚が多く、初心者にもおすすめ。水深は5m〜15m、流れはほとんどない。",
                "latitude": 28.15,
                "longitude": 129.41,
                "id": "p_1765713338_e2c7a0",
                "image": ""
              }
            ]
          },
          {
            "name": "本島北部（笠利・龍郷湾）",
            "description": "穏やかな湾内が多く、色鮮やかなサンゴ礁が広がる。初心者からベテランまで楽しめ、マクロ生物の宝庫であり、ウミガメとの遭遇率も高いエリアです。",
            "id": "a_1765713338_598d98",
            "children": [
              {
                "name": "笠利・崎野鼻",
                "desc": "沖合に沈む根には、キンギョハナダイが乱舞。時期によってはマンタのクリーニングステーションとなり、豪快なシーンが見られることも。水深は25m前後。流れがある場合も。",
                "latitude": 28.37,
                "longitude": 129.43,
                "id": "p_1765713338_73e563",
                "image": ""
              },
              {
                "name": "龍郷湾・大根",
                "desc": "水深20m前後の沈船ポイント。船体には様々な海洋生物が住み着き、探検気分を味わえる。ツバメウオやイソマグロの群れに遭遇することも。",
                "latitude": 28.33,
                "longitude": 129.38,
                "id": "p_1765713338_b1abaa",
                "image": ""
              },
              {
                "name": "笠利・ビタロー",
                "desc": "一面に広がるサンゴ礁が美しいポイント。根の周りをハナダイやスズメダイの群れが彩り、浅場では色とりどりの熱帯魚が迎えてくれる。水深15m前後。",
                "latitude": 28.39,
                "longitude": 129.45,
                "id": "p_1765713338_a2a19b",
                "image": ""
              },
              {
                "name": "龍郷湾・エビ穴",
                "desc": "地形が面白く、洞窟のような地形が特徴。中にはソフトコーラルが広がり、キンメモドキの群れが幻想的な光景を作り出す。水深20m前後。",
                "latitude": 28.32,
                "longitude": 129.37,
                "id": "p_1765713338_b8a245",
                "image": ""
              },
              {
                "name": "笠利・ヤギ島",
                "desc": "水深15m前後のドロップオフ。壁に沿って進むと、ハナダイやスズメダイの群れ、時にはカスミアジなどの回遊魚に会える。流れがある場合も。",
                "latitude": 28.38,
                "longitude": 129.44,
                "id": "p_1765713338_f975ae",
                "image": ""
              }
            ]
          },
          {
            "name": "本島西海岸（手広・崎原）",
            "description": "外洋に面し、迫力ある地形と濃い魚影が魅力。冬季はザトウクジラに遭遇する可能性もあり、ワイドからマクロまで幅広いダイビングが楽しめます。",
            "id": "a_1765713338_4d448e",
            "children": [
              {
                "name": "本島西海岸・手広の根",
                "desc": "手広湾に面したダイナミックな根。キンギョハナダイの群れが舞い、時期には産卵シーンも見られる。水深は15m～25m。流れは緩やかなことが多い。",
                "latitude": 28.301,
                "longitude": 129.46,
                "id": "p_1765713338_cf2367",
                "image": ""
              },
              {
                "name": "本島西海岸・崎原の洞窟",
                "desc": "崎原漁港沖にある洞窟ポイント。洞窟内ではノコギリダイやアカマツカサなどの魚影が濃く、光のカーテンが幻想的。水深10m～20m。流れは穏やか。",
                "latitude": 28.315,
                "longitude": 129.455,
                "id": "p_1765713338_690489",
                "image": ""
              },
              {
                "name": "本島西海岸・デバスズメダイのカーテン",
                "desc": "手広の沖合に広がる砂地。シーズンにはデバスズメダイが乱舞し、まるで魚のカーテンのよう。水深20m～30m。流れがある場合も。",
                "latitude": 28.298,
                "longitude": 129.465,
                "id": "p_1765713338_f911ce",
                "image": ""
              },
              {
                "name": "本島西海岸・崎原のアーチ",
                "desc": "崎原の海中に広がる自然のアーチ。アーチをくぐるように泳ぐことができ、ロウソク岩やテングハギモドキなどの魚が見られる。水深15m～25m。",
                "latitude": 28.32,
                "longitude": 129.45,
                "id": "p_1765713338_0ebdad",
                "image": ""
              },
              {
                "name": "本島西海岸・手広のドロップオフ",
                "desc": "手広湾の沖合に広がるドロップオフ。水深30m以上へ落ち込み、ロウニンアジやツチハンモドキなどの大物に出会えるチャンス。流れは速いことも。",
                "latitude": 28.295,
                "longitude": 129.47,
                "id": "p_1765713338_3f121f",
                "image": ""
              }
            ]
          },
          {
            "name": "名瀬湾・小宿エリア",
            "description": "奄美市街地から近くアクセス抜群。沈船ポイントや人工魚礁があり、カラフルなサンゴ礁と多種多様なマクロ生物が観察できる、手軽に楽しめるエリアです。",
            "id": "a_1765713338_05ac7f",
            "children": [
              {
                "name": "名瀬湾・ポートサイド",
                "desc": "名瀬新港の防波堤周辺。港内なので流れは穏やかで、初心者にも安心。テトラポットの隙間にはハゼやカニ、時にはタコなども見られる。浅場にはサンゴも点在し、熱帯魚の群れも楽しめる。水深は5〜10m程度。",
                "latitude": 28.366,
                "longitude": 129.495,
                "id": "p_1765713338_8af7b2",
                "image": ""
              },
              {
                "name": "名瀬湾・崎山",
                "desc": "名瀬湾の西側に位置するポイント。水深は浅く、テーブルサンゴの絨毯が広がる。色とりどりの熱帯魚や、ウミガメに出会えることも。透明度が高く、光の差し込みも美しい。水深は5〜15m。",
                "latitude": 28.35,
                "longitude": 129.47,
                "id": "p_1765713338_1c7061",
                "image": ""
              },
              {
                "name": "名瀬湾・ホエール",
                "desc": "冬場にはザトウクジラが観察できる可能性のあるポイント。普段は根が点在し、様々な魚が集まる。根の周りにはキンギョハナダイやスズメダイの群れが見られる。水深は15〜25m。",
                "latitude": 28.345,
                "longitude": 129.45,
                "id": "p_1765713338_1d17c0",
                "image": ""
              },
              {
                "name": "小宿・ツバル",
                "desc": "水深が比較的あり、ダイナミックな地形が楽しめる。大きな根があり、その周りを回遊魚が泳ぐ姿が見られることも。ハナゴンベやハタ類など、大型の魚との出会いも期待できる。水深は20〜30m。",
                "latitude": 28.33,
                "longitude": 129.46,
                "id": "p_1765713338_3061fa",
                "image": ""
              }
            ]
          }
        ]
      },
      {
        "name": "鹿児島（屋久島・種子島など）",
        "type": "Zone",
        "description": "薩南諸島（屋久島、種子島、トカラ列島）は黒潮の恩恵を強く受け、年間を通して魚種が豊富。屋久島ではダイナミックな地形や、独特な固有種が見られ、種子島では浅場のサンゴが美しい。トカラ列島は世界的な大物の回遊ルートであり、上級者向けのワイルドなダイビングが楽しめる。",
        "id": "z_1765713338_524736",
        "displayOrder": 9,
        "children": [
          {
            "name": "屋久島周辺",
            "description": "世界遺産の島ならではの豊かな生態系。サンゴ礁、回遊魚、マクロ生物、ダイナミックな地形ダイブが魅力です。",
            "id": "a_1765713338_db8b60",
            "children": [
              {
                "name": "屋久島・藤棚",
                "desc": "地形が特徴的で、無数の藤の花のようなソフトコーラルが咲き乱れる。キンギョハナダイやスズメダイの群れが見られ、水深は10〜25m。流れは穏やかなことが多い。",
                "latitude": 30.35,
                "longitude": 130.6,
                "id": "p_1765713338_1665d6",
                "image": ""
              },
              {
                "name": "屋久島・沈船",
                "desc": "沈没した船がそのままダイビングポイントに。魚礁となっており、様々な魚が群れている。中性浮力が取れれば船内にも潜れる。水深は18〜30m。流れは中程度。",
                "latitude": 30.33,
                "longitude": 130.62,
                "id": "p_1765713338_c2d59a",
                "image": ""
              },
              {
                "name": "屋久島・大瀬",
                "desc": "屋久島を代表するダイビングスポット。潮通しが良く、大型回遊魚に会えるチャンスが多い。水深は15〜30m。流れは速くなることもあるので注意が必要。",
                "latitude": 30.37,
                "longitude": 130.58,
                "id": "p_1765713338_b8ac23",
                "image": ""
              },
              {
                "name": "屋久島・一湊ドロップオフ",
                "desc": "水深20mから一気に落ち込むドロップオフ。壁にはキンメモドキなどが群れ、水面近くではイソマグロのトルネードが見られることも。水深は20〜40m。",
                "latitude": 30.4,
                "longitude": 130.55,
                "id": "p_1765713338_b10730",
                "image": ""
              },
              {
                "name": "屋久島・ヤクシカ",
                "desc": "名前の由来は、地形がヤクシカに似ていることから。サンゴやイソギンチャクが多く、色とりどりの魚たちがお出迎え。水深は10〜25m。流れは穏やか。",
                "latitude": 30.32,
                "longitude": 130.61,
                "id": "p_1765713338_5688bf",
                "image": ""
              }
            ]
          },
          {
            "name": "種子島周辺",
            "description": "黒潮が育む美しいサンゴ礁と大物回遊魚が魅力。アーチや洞窟など独特の水中地形も楽しめます。",
            "id": "a_1765713338_7ed9c0",
            "children": [
              {
                "name": "種子島・赤尾根",
                "desc": "水深10m〜30m。沈船や岩礁があり、キンギョハナダイやハナゴンベなどが群れる。時折、ヒメジやムラサメモンガラなども見られる。初心者から楽しめる。",
                "latitude": 30.5,
                "longitude": 130.9,
                "id": "p_1765713338_df70b2",
                "image": ""
              },
              {
                "name": "種子島・大瀬",
                "desc": "水深15m〜40m。ドロップオフが特徴で、キンメモドキの群れやイソマグロが見られることも。地形の変化も面白く、探検気分で潜れる。流れがある場合も。",
                "latitude": 30.6,
                "longitude": 130.9,
                "id": "p_1765713338_32b7d3",
                "image": ""
              },
              {
                "name": "種子島・馬毛島沖",
                "desc": "水深20m〜50m。根が点在し、ハナダイやハナゴンベの宝庫。運が良ければギンガメアジのトルネードに出会えることも。流れが速い場合もあるため注意。",
                "latitude": 30.4,
                "longitude": 130.8,
                "id": "p_1765713338_d8ea32",
                "image": ""
              },
              {
                "name": "種子島・上瀬",
                "desc": "水深5m〜25m。サンゴが美しく、色とりどりの小魚が豊富。ウミウシなども多く見られる。透明度が高い日が多く、のんびりマクロ撮影を楽しみたいダイバーにおすすめ。",
                "latitude": 30.5,
                "longitude": 131.0,
                "id": "p_1765713338_9986fb",
                "image": ""
              },
              {
                "name": "種子島・竹崎",
                "desc": "水深10m〜30m。沈み瀬が点在し、キンギョハナダイやハナゴンベが舞う。ヤギやイソバナなども見られ、色彩豊かな海中景観が楽しめる。浅場でも生物が多い。",
                "latitude": 30.7,
                "longitude": 130.9,
                "id": "p_1765713338_0303da",
                "image": ""
              }
            ]
          },
          {
            "name": "口永良部島周辺",
            "description": "屋久島の西に位置する火山島。ダイナミックな海底地形、温泉が湧き出る海中、回遊魚も豊富です。",
            "id": "a_1765713338_038c60",
            "children": [
              {
                "name": "口永良部島・東ノ崎",
                "desc": "東シナ海に突き出した地形で、外洋からの栄養塩が豊富。キンギョハナダイの群れや、時期によってはマンタのクリーニングステーションとしても有名。水深は浅い根からドロップオフまであり、流れがあることも。",
                "latitude": 30.19,
                "longitude": 130.19,
                "id": "p_1765713338_22a0d9",
                "image": ""
              },
              {
                "name": "口永良部島・本村沖",
                "desc": "港の近くに広がる穏やかなポイント。サンゴや熱帯魚が多く、初心者でも安心して潜れる。ウミガメとの遭遇率も高い。水深は比較的浅く、流れも緩やかなことが多い。",
                "latitude": 30.15,
                "longitude": 130.22,
                "id": "p_1765713338_dcdbc9",
                "image": ""
              },
              {
                "name": "口永良部島・沈船ポイント",
                "desc": "人工漁礁として沈められた船の周りに、魚が集まる。ムツやカンパチなどの大物が見られることも。水深はやや深めだが、沈船の構造物にくっついている生物観察も楽しい。",
                "latitude": 30.17,
                "longitude": 130.21,
                "id": "p_1765713338_fa1192",
                "image": ""
              },
              {
                "name": "口永良部島・沖の瀬",
                "desc": "沖合にある水中根。水深が深く、ダイナミックなドロップオフが広がる。大型回遊魚や、運が良ければハンマーヘッドシャークの群れに遭遇する可能性も。流れは強い。",
                "latitude": 30.18,
                "longitude": 130.18,
                "id": "p_1765713338_c9e699",
                "image": ""
              }
            ]
          },
          {
            "name": "トカラ列島北部（口之島・中之島）",
            "description": "黒潮の幹線に近く、ハンマーヘッドやギンガメアジの群れなど、大物回遊魚の宝庫。秘境感も満載です。",
            "id": "a_1765713338_4cee01",
            "children": [
              {
                "name": "口之島・東の根",
                "desc": "口之島の東側に位置する漁礁ポイント。キンギョハナダイやスズメダイの群れが圧巻。水深は15m〜30mで、流れは穏やかなことが多い。運が良ければ回遊魚に出会えることも。",
                "latitude": 30.48,
                "longitude": 130.25,
                "id": "p_1765713338_f2401a",
                "image": ""
              },
              {
                "name": "口之島・沈船 wreck",
                "desc": "戦時中に沈んだと言われる船が沈むポイント。水中を漂うような感覚が味わえる。魚礁としても機能しており、様々な魚が見られる。水深は20m〜40m。",
                "latitude": 30.47,
                "longitude": 130.24,
                "id": "p_1765713338_be3b7a",
                "image": ""
              },
              {
                "name": "中之島・沖の瀬",
                "desc": "中之島の沖合に広がるドロップオフ。水深は20mから一気に深くなる。ダイナミックな地形と、カンパチやツムブリなどの大型魚の群れが期待できる。流れがある場合も。",
                "latitude": 30.3,
                "longitude": 130.3,
                "id": "p_1765713338_7e1d79",
                "image": ""
              },
              {
                "name": "中之島・サンゴの谷",
                "desc": "中之島周辺のサンゴが美しいポイント。色とりどりのサンゴと、そこに集まる熱帯魚のコントラストが素晴らしい。水深は10m〜25mで、流れも穏やかな日が多い。",
                "latitude": 30.29,
                "longitude": 130.29,
                "id": "p_1765713338_a3a4ce",
                "image": ""
              },
              {
                "name": "中之島・ネズミ穴",
                "desc": "水中洞窟のような地形が特徴。光が差し込む様子は神秘的。洞窟内ではハタンポやイサキなどが見られる。水深は15m〜30m。",
                "latitude": 30.31,
                "longitude": 130.31,
                "id": "p_1765713338_67c634",
                "image": ""
              }
            ]
          }
        ]
      },
      {
        "name": "沖縄本島・慶良間諸島",
        "type": "Zone",
        "description": "日本を代表するダイビングエリアの一つ。高透明度の海、色鮮やかなサンゴ礁、豊富な熱帯魚が魅力。特に慶良間諸島は世界有数の透明度を誇り、ドリフトダイビングも盛ん。",
        "id": "z_1765713338_252720",
        "displayOrder": 10,
        "children": [
          {
            "name": "慶良間諸島北部（座間味島・渡嘉敷島周辺）",
            "description": "慶良間ブルーの象徴。砂地、サンゴ、地形、ウミガメとの遭遇が魅力。初心者から上級者まで楽しめる。",
            "id": "a_1765713338_0e9d1a",
            "children": [
              {
                "name": "座間味島・古座間味ビーチ",
                "desc": "美しいサンゴ礁が広がり、色とりどりの熱帯魚が群れる。浅場から水深15m程度まであり、初心者から楽しめる。ウミガメに遭遇する確率も高い。穏やかな日が多い。",
                "latitude": 26.22,
                "longitude": 127.34,
                "id": "p_1765713338_5c966a",
                "image": ""
              },
              {
                "name": "渡嘉敷島・ニシハマ",
                "desc": "透明度抜群の美しいビーチ。サンゴが健康で、カラフルな小魚がたくさん見られる。水深も浅いエリアが多く、気軽に楽しめる。砂地にはガーデンイールも生息。",
                "latitude": 26.17,
                "longitude": 127.44,
                "id": "p_1765713338_9ef669",
                "image": ""
              },
              {
                "name": "座間味島・アカバマ",
                "desc": "ドロップオフがあり、ダイナミックな地形が楽しめる。水深は20m以上。キンギョハナダイやスズメダイの群れ、運が良ければ回遊魚にも会える。流れがある場合も。",
                "latitude": 26.23,
                "longitude": 127.32,
                "id": "p_1765713338_5ff518",
                "image": ""
              },
              {
                "name": "渡嘉敷島・儀名（ぎな）",
                "desc": "水深15m〜30mほどの、テーブルサンゴが群生するポイント。クマノミやチョウチョウウオなど、多くの種類の熱帯魚が見られる。穏やかな海況の日が多い。",
                "latitude": 26.18,
                "longitude": 127.45,
                "id": "p_1765713338_51199d",
                "image": ""
              },
              {
                "name": "慶良間諸島・デリシャス",
                "desc": "ハナダイの群れや、色鮮やかなサンゴが美しいポイント。水深20m前後。運が良ければマンタやナポレオンフィッシュに遭遇することも。流れに注意。",
                "latitude": 26.2,
                "longitude": 127.38,
                "id": "p_1765713338_e59e9e",
                "image": ""
              }
            ]
          },
          {
            "name": "慶良間諸島南部（阿嘉島・慶留間島周辺）",
            "description": "ドリフトダイビングやドロップオフが多く、回遊魚や大物狙いに適している。ダイナミックな潜りが魅力。",
            "id": "a_1765713338_9fa068",
            "children": [
              {
                "name": "阿嘉島・北の根",
                "desc": "慶良間諸島を代表する人気ポイント。水深15m〜30m。30〜50匹のバラクーダのトルネードが見られることも。その他、ハナゴイやウミウシなども豊富。流れは多少ある場合も。",
                "latitude": 26.133,
                "longitude": 127.419,
                "id": "p_1765713338_78de91",
                "image": ""
              },
              {
                "name": "阿嘉島・沈船（ニライカジ）",
                "desc": "水深20m〜40mに沈む貨物船。魚礁となり、様々な魚が集まる。ギンガメアジの群れや、運が良ければロウニンアジも見られる。洞窟のような船内探検も楽しい。",
                "latitude": 26.14,
                "longitude": 127.41,
                "id": "p_1765713338_f2fa46",
                "image": ""
              },
              {
                "name": "慶留間島・カミヤ崎",
                "desc": "水深5m〜25m。サンゴが非常に美しく、カラフルな熱帯魚が群れる。地形も面白く、アーチや洞窟など探検気分を味わえる。初心者から上級者まで楽しめる。",
                "latitude": 26.118,
                "longitude": 127.435,
                "id": "p_1765713338_3ff514",
                "image": ""
              },
              {
                "name": "慶留間島・ニシバマ",
                "desc": "水深5m〜20m。穏やかな湾内なので、流れも少なく初心者やブランクダイバーにおすすめ。浅場にはサンゴや小魚、少し潜るとタマゴタテジマなどが観察できる。",
                "latitude": 26.125,
                "longitude": 127.428,
                "id": "p_1765713338_832a2e",
                "image": ""
              }
            ]
          },
          {
            "name": "沖縄本島中部（恩納村・読谷村周辺）",
            "description": "青の洞窟に代表される地形ダイビングが有名。ダイナミックな水中景観と豊富なマクロ生物が楽しめる。",
            "id": "a_1765713338_769f7d",
            "children": [
              {
                "name": "恩納村・万座ドリームホール",
                "desc": "洞窟ダイビングの聖地。水深30mのホールを潜り抜け、光のカーテンに包まれる神秘的な体験。地形がダイナミックで、アーチやクレバスも楽しめる。稀にカスミアジやイソマグロの群れに遭遇することも。",
                "latitude": 26.438,
                "longitude": 127.855,
                "id": "p_1765713338_16349a",
                "image": ""
              },
              {
                "name": "恩納村・クロスライン",
                "desc": "迷路のような地形が特徴。大小様々なクレバスを抜けていく冒険的なダイビング。キンギョハナダイやスズメダイの群れが豊富で、ハナゴンベやハダカハナダイなどの人気者も高確率で見られる。流れがある場合も。",
                "latitude": 26.435,
                "longitude": 127.845,
                "id": "p_1765713338_c29590",
                "image": ""
              },
              {
                "name": "読谷村・チービシ/渡名喜島",
                "desc": "慶良間諸島の手前にあるポイント。水深15m〜20mと浅く、初心者にもおすすめ。サンゴ礁が美しく、カラフルな熱帯魚が群れをなしている。運が良ければウミガメにも会える。",
                "latitude": 26.23,
                "longitude": 127.71,
                "id": "p_1765713338_c9b640",
                "image": ""
              },
              {
                "name": "恩納村・ナカユクイ",
                "desc": "水深10m〜20mの砂地と根が点在するポイント。砂地にはチンアナゴやガーデンイール、根にはハゼの仲間などが多く生息。マクロ生物探しに最適で、探求心をくすぐる。",
                "latitude": 26.43,
                "longitude": 127.86,
                "id": "p_1765713338_863f3d",
                "image": ""
              },
              {
                "name": "読谷村・洞窟",
                "desc": "水深20m〜30mにある神秘的な洞窟。侵入すると光が差し込み、幻想的な光景が広がる。洞窟内にはハタンポなどの魚が集まる。洞窟出口付近では、外洋からの魚に会えることもある。",
                "latitude": 26.41,
                "longitude": 127.79,
                "id": "p_1765713338_5dc95b",
                "image": ""
              }
            ]
          },
          {
            "name": "沖縄本島南部・慶良間チービシ諸島",
            "description": "那覇からのアクセスが良く、穏やかなサンゴ礁や砂地が広がる。体験ダイビングや初心者講習に最適。",
            "id": "a_1765713338_ef5b28",
            "children": [
              {
                "name": "慶良間チービシ・夏 הזה (ナツダカ)",
                "desc": "慶良間諸島でも代表的なダイビングスポット。水深5m〜20m。サンゴ礁が広がり、熱帯魚が豊富。初心者から上級者まで楽しめる。流れは穏やかな日が多い。",
                "latitude": 26.165,
                "longitude": 127.655,
                "id": "p_1765713338_83f5eb",
                "image": ""
              },
              {
                "name": "慶良間チービシ・神山島南根 (カミヤマジマナンコン)",
                "desc": "神山島の南に位置する根。水深10m〜25m。大きな根に魚が集まりやすく、グルクンやカスミチョウチョウウオの群れが見られる。運が良ければウミガメも。流れは中程度。",
                "latitude": 26.148,
                "longitude": 127.662,
                "id": "p_1765713338_261ee9",
                "image": ""
              },
              {
                "name": "慶良間チービシ・渡嘉敷島北岸 (トカシキジマホクガン)",
                "desc": "渡嘉敷島の北側にあるドロップオフ。水深15m〜30m。ダイナミックな地形と、運が良ければ回遊魚に出会えるポイント。流れはやや強めの場合もある。",
                "latitude": 26.215,
                "longitude": 127.47,
                "id": "p_1765713338_a2d30d",
                "image": ""
              },
              {
                "name": "慶良間チービシ・座間味島沖 (ザマミジマオキ)",
                "desc": "座間味島から少し離れた沖合。水深20m〜35m。マンタやサメなどの大物出現の可能性があり、アドレナリンが出るポイント。流れは強くなることも。",
                "latitude": 26.225,
                "longitude": 127.35,
                "id": "p_1765713338_87215b",
                "image": ""
              },
              {
                "name": "慶良間チービシ・阿嘉島沖 (アカジマオキ)",
                "desc": "阿嘉島の沖合に点在する漁礁。水深18m〜30m。熱帯魚はもちろん、時期によってはイソマグロの群れも期待できる。変化に富んだ地形が魅力。",
                "latitude": 26.19,
                "longitude": 127.385,
                "id": "p_1765713338_095ee5",
                "image": ""
              }
            ]
          }
        ]
      },
      {
        "name": "石垣島・八重山諸島",
        "type": "Zone",
        "description": "マンタの群れに遭遇できる「マンタスクランブル」で世界的に有名。ダイナミックな地形、大物、群れなど、沖縄本島とは異なる個性豊かなダイビングが楽しめる。",
        "id": "z_1765713338_9592fc",
        "displayOrder": 11,
        "children": [
          {
            "name": "石垣島 川平石崎・北部周辺",
            "description": "世界的に有名なマンタのクリーニングステーション。高確率でマンタと遭遇でき、迫力満点のダイビングが楽しめる。地形ポイントも豊富。",
            "id": "a_1765713338_9df2b6",
            "children": [
              {
                "name": "川平石崎マンタスクランブル",
                "desc": "石垣島を代表するマンタのポイント。水深約5mのクリーニングステーションにマンタが集まる。流れがある場合も。運が良ければ他の大物にも出会える。",
                "latitude": 24.427,
                "longitude": 124.135,
                "id": "p_1765713338_4a4693",
                "image": ""
              },
              {
                "name": "石垣島御神崎",
                "desc": "断崖絶壁が続く景勝地。ドロップオフやアーチがあり、地形ダイビングが楽しめる。ハナダイやスズメダイの群れ、運が良ければ回遊魚も。水深はポイントによる。",
                "latitude": 24.421,
                "longitude": 124.123,
                "id": "p_1765713338_7f31aa",
                "image": ""
              },
              {
                "name": "石垣島崎枝",
                "desc": "サンゴが非常に美しく、カラフルな熱帯魚が豊富。浅い場所から水深15m程度まであり、初心者から楽しめる。クマノミの仲間やウミウシなども見られる。",
                "latitude": 24.435,
                "longitude": 124.15,
                "id": "p_1765713338_260062",
                "image": ""
              },
              {
                "name": "石垣島八重山カメパラ",
                "desc": "アオウミガメが多く生息するポイント。水深10m前後で、のんびりと泳ぐカメたちを間近で見ることができる。ウミガメ以外にも、ハダカハオコゼなども見られる。",
                "latitude": 24.431,
                "longitude": 124.142,
                "id": "p_1765713338_860627",
                "image": ""
              },
              {
                "name": "石垣島平久保崎",
                "desc": "透明度が高く、サンゴ礁が広がる。水深はポイントによって様々で、ドロップオフもある。グルクンやタマンなどの魚影が濃く、沖ではナポレオンフィッシュも目撃される。",
                "latitude": 24.578,
                "longitude": 124.221,
                "id": "p_1765713338_1ccca0",
                "image": ""
              }
            ]
          },
          {
            "name": "竹富島・黒島・小浜島周辺",
            "description": "美しい白砂のポイントや広大なサンゴ礁が広がる穏やかな海域。地形やマクロも楽しめる。初心者からベテランまで人気。",
            "id": "a_1765713338_12d742",
            "children": [
              {
                "name": "竹富島南",
                "desc": "ドロップオフと白砂のコントラストが美しい。キンギョハナダイ群れ、グルクンの群れが見られ、ネムリブカやウミガメとの遭遇も。マクロ生物も豊富。水深5〜30m超、流れは穏やか。",
                "latitude": 24.31,
                "longitude": 124.09,
                "id": "p_1765713338_77f51a",
                "image": ""
              },
              {
                "name": "竹富島西",
                "desc": "複雑な地形が魅力のポイント。クレバスや洞窟に差し込む光のシャワーが幻想的で、ハタンポの群れが群舞する。イセエビ、ウミウシ、豊かなサンゴも。水深5〜25m、流れは穏やか。",
                "latitude": 24.31,
                "longitude": 124.07,
                "id": "p_1765713338_3663a6",
                "image": ""
              },
              {
                "name": "黒島V字",
                "desc": "V字に切れ込んだ水路が特徴的な地形ポイント。上から降り注ぐ光が神秘的で、アカマツカサやネムリブカ、稀にイソマグロなども見られる。サンゴも豊富で美しい。水深5〜25m、流れは穏やか。",
                "latitude": 24.25,
                "longitude": 124.0,
                "id": "p_1765713338_b83f06",
                "image": ""
              },
              {
                "name": "黒島北",
                "desc": "ドロップオフ沿いに点在するクレバスやオーバーハングが魅力。イソマグロやギンガメアジの群れ、カメとの遭遇率も高い。根にはカラフルなマクロ生物が充実。水深5〜30m超、時に流れる。",
                "latitude": 24.25,
                "longitude": 124.02,
                "id": "p_1765713338_a687ea",
                "image": ""
              },
              {
                "name": "ヨナラ水道",
                "desc": "小浜島と西表島を結ぶ、マンタ遭遇率の高いドリフトポイント。潮通しが良く、バラクーダやギンガメアジの群れも期待できる。中上級者向け。水深10〜20m、強い流れに注意が必要。",
                "latitude": 24.36,
                "longitude": 123.96,
                "id": "p_1765713338_d1a508",
                "image": ""
              },
              {
                "name": "パナリ竜宮城",
                "desc": "新城島（パナリ島）周辺の広大な白砂が美しいポイント。点在する根にはカラフルなサンゴや熱帯魚が群れる。ウミガメや珍しい根魚、マクロ生物も観察できる。水深5〜15m、流れは穏やか。",
                "latitude": 24.27,
                "longitude": 123.96,
                "id": "p_1765713338_133259",
                "image": ""
              }
            ]
          },
          {
            "name": "西表島方面（網取・崎山湾など）",
            "description": "広大なテーブルサンゴ群落やダイナミックな地形が魅力。大物や回遊魚、多様な生物に出会える、アドレナリンが出る海。",
            "id": "a_1765713338_728045",
            "children": []
          },
          {
            "name": "与那国島方面（海底遺跡・ハンマーヘッド）",
            "description": "世界で唯一の海底遺跡と、冬に群れるハンマーヘッドシャークが最大の魅力。経験者向けのダイナミックな海。",
            "id": "a_1765713338_0d74cd",
            "children": []
          }
        ]
      }
    ],
    "id": "r_1765713338_4dbed2"
  },
  {
    "name": "パラオ",
    "type": "Region",
    "children": [
      {
        "name": "コロール中心部と周辺ダイビングエリア",
        "type": "Zone",
        "description": "パラオのダイビングの中心となるエリアで、ブルーコーナー、ブルーホール、ジャーマンチャネル、ウーロンチャネルなど、世界的に有名なダイビングポイントが集中しています。宿泊施設やダイブショップが多く集まる拠点となり、初心者からベテランまで幅広いダイバーが楽しめます。",
        "id": "z_1765713338_674188",
        "children": [
          {
            "name": "ロックアイランド内海エリア（穏やかなサンゴと沈船）",
            "description": "透明度の高い穏やかな海域に、色とりどりのソフトコーラル、歴史的な沈船、多種多様なマクロ生物が共存するエリア。",
            "id": "a_1765713338_8f9516",
            "children": []
          },
          {
            "name": "ジャーマンチャネルと周辺のドロップオフ",
            "description": "マンタのクリーニングステーションとして世界的に有名。外洋からの栄養豊富な潮流が大物群れや美しいドロップオフを育む。",
            "id": "a_1765713338_3baa7b",
            "children": [
              {
                "name": "ジャーマンチャネル・インナー",
                "desc": "ジャーマンチャネルの奥深く。ソフトコーラルが美しく、ホワイトチップ・リーフシャーク、ナポレオンフィッシュ、バラクーダなどが頻繁に見られる。流れが強い場合あり。水深15-30m",
                "latitude": 4.138,
                "longitude": 134.162,
                "id": "p_1765713338_a11930",
                "image": ""
              },
              {
                "name": "ジャーマンチャネル・アウター",
                "desc": "ジャーマンチャネルの入り口付近。マンタやサメの出現率が高く、ダイナミックな体験ができる。流れが非常に強い場合もあるため、経験者向け。水深10-25m",
                "latitude": 4.142,
                "longitude": 134.165,
                "id": "p_1765713338_d79fd9",
                "image": ""
              },
              {
                "name": "ネコジャメシティ",
                "desc": "ジャーマンチャネル周辺の砂地エリア。ネコジャメの生息地として有名。砂に潜るネコジャメの愛らしい姿を楽しめる。水深15-20m、流れは穏やか。",
                "latitude": 4.145,
                "longitude": 134.16,
                "id": "p_1765713338_4fa551",
                "image": ""
              },
              {
                "name": "ブルーコーナー・ドロップオフ",
                "desc": "パラオを代表するダイビングスポット。垂直に落ちるドロップオフには、多数の魚群、サメ、ナポレオンフィッシュなどが集まる。流れが強い。水深5-30m",
                "latitude": 4.15,
                "longitude": 134.168,
                "id": "p_1765713338_24e8cb",
                "image": ""
              },
              {
                "name": "スネークアイランド・ドロップオフ",
                "desc": "スネークアイランドのドロップオフ。ウミヘビが多く生息し、その姿を観察できる。ソフトコーラルも美しく、多様な魚種が見られる。流れは穏やか～中程度。水深10-25m",
                "latitude": 4.16,
                "longitude": 134.175,
                "id": "p_1765713338_7973e3",
                "image": ""
              }
            ]
          },
          {
            "name": "ウーロン島周辺のチャネルとウォール",
            "description": "ダイナミックなカレントが特徴で、グレイリーフシャークやナポレオン、巨大なハードコーラル群が圧巻の景観を創り出す。",
            "id": "a_1765713338_f2d6ac",
            "children": [
              {
                "name": "ウーロン島北チャネル",
                "desc": "ウーロン島北側のチャネル。ソフトコーラルが美しく、ナポレオンフィッシュやホワイトチップ・リーフシャーク、多数の熱帯魚が見られる。流れが速い場合あり。水深10-25m",
                "latitude": 4.15,
                "longitude": 134.65,
                "id": "p_1765713338_f60252",
                "image": ""
              },
              {
                "name": "ウーロン島南ウォール",
                "desc": "ウーロン島南側の垂直なウォール。ゴルゴンジアやソフトコーラルが豊富で、ハンマーヘッドシャークやウミガメ、バラクーダなどが現れることも。流れは穏やか。水深15-30m",
                "latitude": 4.1,
                "longitude": 134.63,
                "id": "p_1765713338_704d77",
                "image": ""
              },
              {
                "name": "ウーロン島西側キャニオン",
                "desc": "ウーロン島西側の複雑な地形を持つキャニオン。洞窟状の地形に隠れるように魚が集まり、マンタやサメも時折現れる。経験者向け。水深12-28m",
                "latitude": 4.12,
                "longitude": 134.6,
                "id": "p_1765713338_1d689a",
                "image": ""
              },
              {
                "name": "ウーロン島東側スロープ",
                "desc": "ウーロン島東側の緩やかなスロープ。ソフトコーラルが広がり、ハタタテダイやゴンズイなどの小魚が多数。初心者にもおすすめ。水深8-20m",
                "latitude": 4.13,
                "longitude": 134.68,
                "id": "p_1765713338_77fbdc",
                "image": ""
              },
              {
                "name": "ウーロン島チャネル・ガーデン",
                "desc": "ウーロン島周辺のチャネル内に位置する、ソフトコーラルが美しいエリア。ウミガメや熱帯魚の群れが見られる。流れは穏やかで、ドリフトダイビングも可能。水深10-20m",
                "latitude": 4.14,
                "longitude": 134.64,
                "id": "p_1765713338_b34270",
                "image": ""
              }
            ]
          },
          {
            "name": "ショートドロップオフ周辺の外洋リーフ",
            "description": "コロールからアクセスしやすい外洋に面したドロップオフ。イソマグロなどの回遊魚や、リーフに群れる小魚が豊富。",
            "id": "a_1765713338_f81838",
            "children": [
              {
                "name": "ショートドロップオフ・マンタクリーニングステーション",
                "desc": "マンタのクリーニングステーションとして有名。多数のマンタが集まり、目の前を優雅に泳ぐ姿は圧巻。水深10-20m、流れは穏やかで初心者にもおすすめ。",
                "latitude": 4.1234,
                "longitude": 134.4567,
                "id": "p_1765713338_23ca44",
                "image": ""
              },
              {
                "name": "ショートドロップオフ・外洋の根",
                "desc": "ショートドロップオフの外洋に位置する根。ナポレオンフィッシュ、マグロ、ホワイトチップ・リーフシャークなど大物に出会えるチャンス大。水深20-30m、流れが速い場合あり。",
                "latitude": 4.1111,
                "longitude": 134.4444,
                "id": "p_1765713338_82f967",
                "image": ""
              },
              {
                "name": "Ulong Channel (ウロンチャネル) 外洋側",
                "desc": "ウロンチャネルの出口付近。ソフトコーラルが美しく、ハナダイやチョウチョウウオなどの小魚が豊富。流れを利用したドリフトダイビングが楽しめる。水深15-25m。",
                "latitude": 4.1389,
                "longitude": 134.4622,
                "id": "p_1765713338_befe77",
                "image": ""
              },
              {
                "name": "German Channel (ジャーマンチャネル) 外洋リーフ",
                "desc": "ジャーマンチャネルの周辺リーフ。マンタやウミガメの遭遇率が高い。地形も変化に富み、ソフトコーラルも美しい。水深10-20m、流れは穏やか。",
                "latitude": 4.15,
                "longitude": 134.47,
                "id": "p_1765713338_68f3cc",
                "image": ""
              },
              {
                "name": "Blue Corner (ブルーコーナー) 外洋側スロープ",
                "desc": "ブルーコーナーのさらに外洋側にあるスロープ。強い流れに沿って大物に出会える可能性が高い。経験豊富なダイバー向け。水深20-40m、流れが非常に速い。",
                "latitude": 4.1667,
                "longitude": 134.4833,
                "id": "p_1765713338_7ac3f9",
                "image": ""
              }
            ]
          }
        ]
      },
      {
        "name": "ペリリュー島周辺",
        "type": "Zone",
        "description": "パラオ本島（バベルダオブ島）の南に位置するエリアで、激しい潮流と豊富な大物（サメ、バラクーダ、マグロなど）との遭遇率の高さで知られています。特にタイドランが有名で、第二次世界大戦の沈船（レック）も見られる上級者向けのポイントが多いです。",
        "id": "z_1765713338_e01fbd",
        "children": [
          {
            "name": "ペリリュー・コーナー周辺",
            "description": "ペリリュー島最南端。強烈な潮流と壮大なドロップオフが特徴。サメ、マグロ、バラクーダなどの大物回遊魚を狙うダイナミックなドリフトダイブ。",
            "id": "a_1765713338_976ebd",
            "children": [
              {
                "name": "ペリリュー・コーナー",
                "desc": "ペリリュー島先端のコーナー。ソフトコーラルが美しく、ナポレオンフィッシュ、マグロ、サメなどの大物に出会えるチャンス大。流れが速い日も。水深15-30m",
                "latitude": 7.0333,
                "longitude": 130.1333,
                "id": "p_1765713338_7846a7",
                "image": ""
              },
              {
                "name": "ペリリュー・ドロップオフ",
                "desc": "垂直に落ち込むドロップオフ。洞窟や割れ目にはホワイトチップリーフシャークが潜んでいることも。ソフトコーラルやゴルゴンジアも豊富。水深10-25m、流れは穏やか。",
                "latitude": 7.0283,
                "longitude": 130.1283,
                "id": "p_1765713338_39ca65",
                "image": ""
              },
              {
                "name": "ペリリュー・トンネル",
                "desc": "第二次世界大戦時の残骸が残るトンネル。スズメダイやチョウチョウウオなどの小魚が群れをなし、神秘的な雰囲気を醸し出す。水深5-15m、流れは穏やか。",
                "latitude": 7.0233,
                "longitude": 130.1233,
                "id": "p_1765713338_5e930a",
                "image": ""
              },
              {
                "name": "ペリリュー・ホワイトビーチ",
                "desc": "穏やかなビーチエントリーポイント。初心者にもおすすめ。サンゴ礁が広がり、色とりどりの熱帯魚やウミガメに出会える。水深5-12m、流れはほとんどない。",
                "latitude": 7.0183,
                "longitude": 130.1183,
                "id": "p_1765713338_7fdd88",
                "image": ""
              }
            ]
          },
          {
            "name": "ペリリュー・エクスプレス/カット周辺",
            "description": "ペリリュー島南東部。さらに強烈なカレントが特徴で、タイガーシャークを含むサメやギンガメアジの群れを狙うスリル満点のドリフトダイブ。",
            "id": "a_1765713338_cf2f5b",
            "children": [
              {
                "name": "ペリリュー・エクスプレス",
                "desc": "沈没船。1944年に沈んだ日本の貨物船。ソフトコーラルに覆われ、魚影が豊富。水深15-30m、流れは穏やか。白ヒレリソウダツやナポレオンフィッシュが見られる。",
                "latitude": 7.0333,
                "longitude": 155.7167,
                "id": "p_1765713338_d335a3",
                "image": ""
              },
              {
                "name": "カット・スルー",
                "desc": "ペリリュー島とアメリアク島の間にある海峡。サンゴ礁が発達し、ソフトコーラルやハードコーラルが美しい。水深5-20m、流れが速い場合あり。ハタタテダイやゴンズキが見られる。",
                "latitude": 7.05,
                "longitude": 155.7333,
                "id": "p_1765713338_c31675",
                "image": ""
              },
              {
                "name": "ホワイトビーチ・リーフ",
                "desc": "ホワイトビーチに面した浅瀬のリーフ。初心者向け。カラフルなサンゴ礁と熱帯魚が豊富。水深3-10m、流れは穏やか。ウミガメもよく見られる。",
                "latitude": 7.0417,
                "longitude": 155.725,
                "id": "p_1765713338_56769b",
                "image": ""
              },
              {
                "name": "ペリリュー・ノーザンリーフ",
                "desc": "ペリリュー島の北端にあるリーフ。地形が変化に富み、ソフトコーラルやゴルゴンジアが美しい。水深8-25m、流れは穏やか。イソギンチャクダマシやハナダイが見られる。",
                "latitude": 7.075,
                "longitude": 155.7417,
                "id": "p_1765713338_3401ce",
                "image": ""
              }
            ]
          },
          {
            "name": "ペリリュー・ドロップオフ周辺（西側）",
            "description": "ペリリュー島西側の透明度抜群の垂直な壁。リーフフィッシュやウミウシなどのマクロから、回遊魚まで幅広い生物が生息する美しい地形。",
            "id": "a_1765713338_237932",
            "children": [
              {
                "name": "ブルーコーナー (ペリリュー)",
                "desc": "ペリリュー版ブルーコーナー。壁に沿って流れがあり、ホワイトチップリーフシャーク、ナポレオンフィッシュ、バラクーダなどが観察可能。水深10-25m。経験者向け。",
                "latitude": 7.025,
                "longitude": 130.1417,
                "id": "p_1765713338_6f446e",
                "image": ""
              },
              {
                "name": "NGKESU (エンゲス)",
                "desc": "ペリリュー島の南端にあるポイント。地形が複雑で、ソフトコーラルやゴルゴンジアが美しい。ウミガメやナポレオンフィッシュもよく見られる。水深5-20m",
                "latitude": 7.0,
                "longitude": 130.1467,
                "id": "p_1765713338_7fd090",
                "image": ""
              },
              {
                "name": "70ボート",
                "desc": "第二次世界大戦時の沈没船。比較的浅い場所に位置し、ソフトコーラルに覆われている。魚影も豊かで、写真撮影にも最適。水深8-18m",
                "latitude": 7.0283,
                "longitude": 130.1367,
                "id": "p_1765713338_febc9b",
                "image": ""
              }
            ]
          },
          {
            "name": "オレンジビーチ/北東リーフ周辺",
            "description": "ペリリュー島東〜北東部。比較的穏やかなリーフで、豊かなサンゴと多彩なリーフフィッシュが生息。戦跡と合わせて歴史を感じるダイビングも。",
            "id": "a_1765713338_afd18b",
            "children": [
              {
                "name": "オレンジビーチ・マンタクリーニングステーション",
                "desc": "マンタのクリーニングステーションとして有名。多数のマンタと遭遇できるチャンス大！水深は10-20m程度、流れは穏やか。ソフトコーラルも美しい。",
                "latitude": 4.145,
                "longitude": 152.668,
                "id": "p_1765713338_f7708a",
                "image": ""
              },
              {
                "name": "北東リーフ・ソフトコーラルガーデン",
                "desc": "北東リーフに広がるソフトコーラルが美しいポイント。水深は5-15mと浅く、初心者にもおすすめ。ゴンズキイワシの群れが見られることも。",
                "latitude": 4.155,
                "longitude": 152.682,
                "id": "p_1765713338_8b5dc7",
                "image": ""
              },
              {
                "name": "ペリリュー・ブルーコーナー（北東リーフ）",
                "desc": "ペリリュー島周辺のブルーコーナー。強い流れに沿って、マグロ、サメ、ナポレオンフィッシュなどの大物に出会える可能性が高い。経験者向け。",
                "latitude": 4.17,
                "longitude": 152.68,
                "id": "p_1765713338_b1cfdf",
                "image": ""
              },
              {
                "name": "オレンジビーチ・トンネル",
                "desc": "オレンジビーチにある水中のトンネル。水深は15-25m。トンネル内には様々な魚が生息しており、探検気分を味わえる。ライト推奨。",
                "latitude": 4.14,
                "longitude": 152.67,
                "id": "p_1765713338_abc01c",
                "image": ""
              }
            ]
          }
        ]
      },
      {
        "name": "カヤンゲル環礁",
        "type": "Zone",
        "description": "パラオ最北端に位置する手つかずの自然が残る秘境エリアです。高い透明度と、固有種を含む豊かなサンゴ礁が特徴で、マンタやイルカとの遭遇も期待できます。コロールからの遠征が必要となるため、限られたダイバーのみが訪れる特別な場所です。",
        "id": "z_1765713338_909da2",
        "children": [
          {
            "name": "北端ドロップオフ・チャネル周辺",
            "description": "カヤンゲル環礁の最北端。外洋からの強いカレントに乗って大型回遊魚やサメが多く集まる。大物狙いのダイナミックなダイビングが魅力です。",
            "id": "a_1765713338_d00061",
            "children": [
              {
                "name": "カヤンゲル北の根",
                "desc": "カヤンゲル環礁北端のドロップオフ。ソフトコーラルが豊富で、ナポレオンフィッシュ、マグロ、ホワイトチップ・リーフシャークなどが頻繁に見られる。流れが速い日も。水深15-30m",
                "latitude": 4.15,
                "longitude": 134.48,
                "id": "p_1765713338_ffec7e",
                "image": ""
              },
              {
                "name": "マンタスクランブル・カヤンゲル",
                "desc": "マンタのクリーニングステーションとして有名。運が良ければ多数のマンタと遭遇可能。ソフトコーラルも美しい。流れは穏やか。水深10-20m",
                "latitude": 4.18,
                "longitude": 134.5,
                "id": "p_1765713338_cb9958",
                "image": ""
              },
              {
                "name": "ブルーコーナー・カヤンゲル",
                "desc": "カヤンゲル環礁の代表的なポイント。強い流れに沿って、バラクーダ、マグロ、サメなどの大物に出会えるチャンス大。経験者向け。水深15-40m",
                "latitude": 4.17,
                "longitude": 134.49,
                "id": "p_1765713338_ab0a6b",
                "image": ""
              },
              {
                "name": "ドロップオフ・ガーデン",
                "desc": "美しいソフトコーラルが広がるドロップオフ。ウミガメ、ナポレオンフィッシュ、様々な熱帯魚が見られる。流れは比較的穏やか。水深10-25m",
                "latitude": 4.16,
                "longitude": 134.47,
                "id": "p_1765713338_d71b2a",
                "image": ""
              },
              {
                "name": "カヤンゲル・チャネル・インサイド",
                "desc": "チャネル内側は比較的穏やかで、ソフトコーラルやゴルゴンジアが美しい。ハナダイ、チョウチョウウオなどの小魚も豊富。水深8-18m",
                "latitude": 4.19,
                "longitude": 134.51,
                "id": "p_1765713338_f31486",
                "image": ""
              }
            ]
          },
          {
            "name": "東側外洋・ドロップオフ周辺",
            "description": "ギンガメアジやバラクーダなどの群れが期待できる外洋。カレントドリフトで広範囲のサンゴ礁やリーフの壁沿いを探索します。",
            "id": "a_1765713338_ab1637",
            "children": [
              {
                "name": "カヤンゲル東 ドロップオフ",
                "desc": "カヤンゲル環礁東側外洋の代表的なドロップオフ。ソフトコーラルが美しく、ナポレオンフィッシュ、マグロ、サメなどの大物に出会えるチャンスも。流れが強め。",
                "latitude": 4.15,
                "longitude": 134.48,
                "id": "p_1765713338_e750e5",
                "image": ""
              },
              {
                "name": "Ulong Channel East (カヤンゲル)",
                "desc": "カヤンゲル環礁東側のチャネル。地形が変化に富み、ソフトコーラルやゴルゴンジアが美しい。ホワイトチップリーフシャークやウミガメもよく見られる。流れの変化に注意。",
                "latitude": 4.12,
                "longitude": 134.5,
                "id": "p_1765713338_b9bbd3",
                "image": ""
              },
              {
                "name": "Big Drop-off (カヤンゲル東)",
                "desc": "垂直に落ちるドロップオフ。ソフトコーラルとハードコーラルが共存し、色鮮やかな光景が広がる。回遊魚の群れや、サメ、ナポレオンフィッシュなども観察可能。流れは普通。",
                "latitude": 4.2,
                "longitude": 134.55,
                "id": "p_1765713338_80ec9d",
                "image": ""
              },
              {
                "name": "Coral Garden East (カヤンゲル)",
                "desc": "東側の穏やかな海域に広がるサンゴ礁。ソフトコーラルが群生し、色とりどりの熱帯魚が多数生息。初心者向けのダイビングポイントとして最適。水深は5-15m程度。",
                "latitude": 4.1,
                "longitude": 134.45,
                "id": "p_1765713338_8f3e6c",
                "image": ""
              }
            ]
          },
          {
            "name": "カヤンゲル・ラグーン（内湾）",
            "description": "環礁内に広がる浅く穏やかな海域。色鮮やかなサンゴ礁が豊かで、幼魚や固有種、マクロ生物の観察に最適。初心者も楽しめます。",
            "id": "a_1765713338_5e3eb5",
            "children": [
              {
                "name": "カヤンゲル・ラグーン・マンタポイント",
                "desc": "カヤンゲル・ラグーン内で最も有名なマンタのクリーニングステーション。穏やかな流れの中、多数のマンタと遭遇できるチャンス大！ソフトコーラルも美しい。",
                "latitude": 4.15,
                "longitude": 134.24,
                "id": "p_1765713338_a4ef9d",
                "image": ""
              },
              {
                "name": "ネオ・ブルーホール (カヤンゲル)",
                "desc": "透明度の高いラグーン内に浮かぶ、美しいブルーホール。光の差し込みが幻想的で、ソフトコーラルや小魚の群れが見られる。水深は浅め。",
                "latitude": 4.18,
                "longitude": 134.26,
                "id": "p_1765713338_444fec",
                "image": ""
              },
              {
                "name": "カヤンゲル・ラグーン・ドロップオフ",
                "desc": "ラグーンの外側へ続くドロップオフ。ソフトコーラルが群生し、ナポレオンフィッシュやマグロなどの大物も出現。流れが強くなる場合あり。",
                "latitude": 4.12,
                "longitude": 134.22,
                "id": "p_1765713338_2ebd04",
                "image": ""
              },
              {
                "name": "カヤンゲル・サンクンシップ",
                "desc": "第二次世界大戦中に沈没した船の残骸。ソフトコーラルに覆われ、多様な魚類が生息。水深は比較的浅く、初心者にもおすすめ。",
                "latitude": 4.16,
                "longitude": 134.25,
                "id": "p_1765713338_91be5a",
                "image": ""
              },
              {
                "name": "カヤンゲル・ラグーン・ガーデン",
                "desc": "美しいソフトコーラルが広がる浅瀬のポイント。ウミガメや熱帯魚の観察に最適。穏やかな流れで、リラックスしたダイビングを楽しめる。",
                "latitude": 4.14,
                "longitude": 134.23,
                "id": "p_1765713338_f4c378",
                "image": ""
              }
            ]
          },
          {
            "name": "西側外洋・ドロップオフ周辺",
            "description": "東側と対をなす西側の外洋。イソマグロやサメ、ナポレオンなど、大型の魚影が濃い。潮の状況で様々な表情を見せます。",
            "id": "a_1765713338_427d52",
            "children": [
              {
                "name": "カヤンゲル西側外洋 マンタスクランブル",
                "desc": "マンタのクリーニングステーションとして有名。多数のマンタと遭遇できるチャンス大！水深10-20m、流れが穏やかな日が多い。ソフトコーラルも美しい。",
                "latitude": 4.15,
                "longitude": 134.48,
                "id": "p_1765713338_580e56",
                "image": ""
              },
              {
                "name": "カヤンゲル環礁 ドロップオフ・ビッグNemo",
                "desc": "ドロップオフに沿って進むポイント。ナポレオンフィッシュの群れや、ホワイトチップ・リーフシャークがよく見られる。水深15-30m、中程度の流れ。",
                "latitude": 4.18,
                "longitude": 134.52,
                "id": "p_1765713338_b42221",
                "image": ""
              },
              {
                "name": "カヤンゲル西側外洋 シーファンガーデン",
                "desc": "巨大なシーファンが群生する美しいポイント。ソフトコーラルやハードコーラルも豊富で、色とりどりの魚たちが泳ぐ。水深8-18m、流れは穏やか。",
                "latitude": 4.12,
                "longitude": 134.45,
                "id": "p_1765713338_6957d2",
                "image": ""
              },
              {
                "name": "カヤンゲル環礁 ドロップオフ・ブルーコーナー西",
                "desc": "ブルーコーナーの西側。強い流れに沿って、マグロやサメなどの大物に出会える可能性も。経験者向け。水深20-40m、流れが非常に強い。",
                "latitude": 4.2,
                "longitude": 134.55,
                "id": "p_1765713338_56a6e7",
                "image": ""
              },
              {
                "name": "カヤンゲル西側外洋 隠れ根",
                "desc": "水面から見えない隠れ根のポイント。根の上にはソフトコーラルが繁り、ハナダイやチョウチョウウオが集まる。水深12-25m、流れは穏やか。",
                "latitude": 4.1,
                "longitude": 134.42,
                "id": "p_1765713338_f39931",
                "image": ""
              }
            ]
          }
        ]
      }
    ],
    "id": "r_1765713338_10325e"
  },
  {
    "name": "フィリピン",
    "type": "Region",
    "children": [
      {
        "name": "セブ周辺",
        "type": "Zone",
        "description": "ニタリザメで有名なマラパスクア、イワシのトルネードが見られるモアルボアル、都市部に近いマクタンなど、多様なダイビングスタイルを楽しめるフィリピンダイビングの中心地の一つです。",
        "id": "z_1765713338_6a0d06",
        "children": [
          {
            "name": "モアルボアル",
            "description": "壮大なイワシトルネードと、多くのウミガメに遭遇できることで有名。美しいウォールダイブも楽しめる。",
            "id": "a_1765713338_a4c369",
            "children": [
              {
                "name": "パンダン島 マンタスクランブル",
                "desc": "モアルボアルで最も有名なポイント。運が良ければ多数のマンタと遭遇可能。水深は15m～25m程度で、流れは穏やか。ソフトコーラルも美しい。",
                "latitude": 9.928,
                "longitude": 123.465,
                "id": "p_1765713338_ff10ba",
                "image": ""
              },
              {
                "name": "トンネル",
                "desc": "パンダン島にある、水深18m～22mの洞窟状のポイント。洞窟内にはソフトコーラルやゴビィなどが生息。少し流れがある場合あり。",
                "latitude": 9.925,
                "longitude": 123.463,
                "id": "p_1765713338_1f2a78",
                "image": ""
              },
              {
                "name": "モアルボアルハウスリーフ",
                "desc": "ビーチからエントリー可能なハウスリーフ。初心者向けで、ソフトコーラルや熱帯魚が豊富。水深は浅く、流れも穏やか。",
                "latitude": 9.932,
                "longitude": 123.458,
                "id": "p_1765713338_a1f4b0",
                "image": ""
              },
              {
                "name": "カンダス島 北の根",
                "desc": "カンダス島にある、水深20m～30mのドロップオフポイント。ソフトコーラルや海扇が群生し、マグロやカツオなどの回遊魚も観察できる。",
                "latitude": 9.915,
                "longitude": 123.448,
                "id": "p_1765713338_5dc59b",
                "image": ""
              }
            ]
          },
          {
            "name": "マラパスクア島",
            "description": "世界で唯一、高確率でニタリザメに遭遇できる場所。多種多様なマクロ生物も見られ、ドリフトダイビングも魅力。",
            "id": "a_1765713338_7d9dd6",
            "children": [
              {
                "name": "マラパスクア島 北の根",
                "desc": "マンタクリーニングステーションとして有名。運が良ければ多数のマンタと遭遇可能。水深15-30m、流れが強い場合あり。ホワイトチップリーフシャークも観察できる。",
                "latitude": 11.8667,
                "longitude": 122.7667,
                "id": "p_1765713338_4b87ef",
                "image": ""
              },
              {
                "name": "ギントン洞窟",
                "desc": "洞窟内部を通り抜けるスリリングなダイビング。水深15-25m、洞窟内は暗く、ライトが必要。ウツボやカニなどの隠れ家となっている。",
                "latitude": 11.85,
                "longitude": 122.7833,
                "id": "p_1765713338_97e3d1",
                "image": ""
              },