[
  {
    "name": "日本",
    "type": "Region",
    "children": [
      {
        "name": "北海道（積丹・知床など）",
        "type": "Zone",
        "description": "冷たい海域ならではの固有種が多く、クリオネ（流氷の天使）やナメダンゴ、オオカミウオなどユニークな生物との出会いが魅力。冬から春にかけての知床半島では、流氷の下を潜る世界的に珍しい「流氷ダイビング」が体験できる。",
        "id": "z_1765695941_0",
        "displayOrder": 1,
        "children": [
          {
            "name": "積丹半島（余市・積丹・神恵内）",
            "description": "北海道を代表する高透明度の海。夏はウニやアワビ、ホタテなど海の幸が豊富。水中洞窟や地形、冬は流氷下のクリオネも魅力。",
            "id": "a_1765700105_積丹半島（余市・積丹・神恵内）",
            "children": [
              {
                "name": "積丹黄金岬沖",
                "desc": "積丹を代表する景勝地「黄金岬」の沖合に広がるダイナミックなポイント。大小の岩礁とクレバスが複雑に入り組み、水深5mから30m超のドロップオフが連続します。高い透明度の「積丹ブルー」の中、カジカやアイナメ、メバル、マダラが群れ、春にはダンゴウオも観察できます。地形派も生物派も楽しめる積丹の代表格です。",
                "latitude": 43.205,
                "longitude": 140.485,
                "id": "p_1765701781_積丹黄金岬沖",
                "image": ""
              },
              {
                "name": "積丹ろうそく岩周辺",
                "desc": "海上に見える積丹のシンボル「ろうそく岩」の周辺に広がるポイントです。力強い岩礁地形が特徴で、その根の周りにはキタノホッケやマダラ、カジカなどの群れが見られます。透明度の良い日には、海中から見上げるろうそく岩の景観は圧巻。時に流れがあるため、中級者以上におすすめです。",
                "latitude": 43.195,
                "longitude": 140.46,
                "id": "p_1765701781_積丹ろうそく岩周辺",
                "image": ""
              },
              {
                "name": "積丹シララの洞窟",
                "desc": "積丹岬の近くに位置する、地形派ダイバーに人気の洞窟ポイントです。洞窟内部は光のカーテンが差し込み、幻想的な空間を演出します。ホヤやイソギンチャクが壁を彩り、小さなエビカニ類やメバル、カジカなどが隠れています。水深は比較的浅く、流れも穏やかなので、初心者でも安心ですが、洞窟ダイビングのスキルは求められます。",
                "latitude": 43.2,
                "longitude": 140.475,
                "id": "p_1765701781_積丹シララの洞窟",
                "image": ""
              },
              {
                "name": "神恵内・大森海岸",
                "desc": "積丹半島西側に位置する、まだあまり知られていない穴場ポイント。手つかずの自然が残り、砂地と岩礁が混在する多様な環境です。カジカやホッケ、アイナメはもちろん、砂地にはヒラメやカレイが身を潜め、多種多様なウミウシとの出会いも期待できます。透明度が高く、穏やかな海況のことが多いです。",
                "latitude": 43.18,
                "longitude": 140.29,
                "id": "p_1765701781_神恵内・大森海岸",
                "image": ""
              },
              {
                "name": "余市・弁天島沖",
                "desc": "余市港からアクセスしやすい沖合のポイントで、複雑な根が点在し、魚影の濃さが魅力です。ホッケやマダラ、アイナメの大きな群れが見られ、時には大型のヒラメやタラも現れます。時に中〜強程度の流れが発生するため、ドリフトダイビングに適しており、経験豊富なダイバーには特におすすめのポイントです。",
                "latitude": 43.23,
                "longitude": 140.77,
                "id": "p_1765701781_余市・弁天島沖",
                "image": ""
              }
            ]
          },
          {
            "name": "知床半島（ウトロ・羅臼）",
            "description": "世界遺産の厳かな自然が広がる。夏はシャチやクジラの遭遇、冬は流氷ダイビングでクリオネやゴマフアザラシに出会える特別な海。",
            "id": "a_1765700105_知床半島（ウトロ・羅臼）",
            "children": [
              {
                "name": "知床・オロンコ岩沖",
                "desc": "ウトロ港近くのダイナミックな地形ポイント。水深は浅めで初心者にもおすすめ。春にはダンゴウオが見られ、夏は群れをなすカジカやフサギンポ、エゾメバルなどを観察できます。流れは穏やかでマクロ生物も豊富です。",
                "latitude": 44.049,
                "longitude": 144.981,
                "id": "p_1765701796_知床・オロンコ岩沖",
                "image": ""
              },
              {
                "name": "知床・ゴジラ岩沖",
                "desc": "奇岩「ゴジラ岩」にちなんだポイント。海底には独特な地形が広がり、洞窟やクレバスが点在します。多様な種類のカジカやアイナメ、そしてアツモリソウのようなウミウシも見られます。潮通しが良い場所では回遊魚も期待できます。",
                "latitude": 44.047,
                "longitude": 144.975,
                "id": "p_1765701796_知床・ゴジラ岩沖",
                "image": ""
              },
              {
                "name": "知床・プユニ岬沖",
                "desc": "知床八景の一つであるプユニ岬の沖合。透明度が高く、雄大な海中景観が魅力です。オオカミウオやマダラ、ホッケの群れがよく見られます。運が良ければゴマフアザラシなどの海獣に遭遇することも。やや深めのポイントです。",
                "latitude": 44.072,
                "longitude": 145.025,
                "id": "p_1765701796_知床・プユニ岬沖",
                "image": ""
              },
              {
                "name": "知床・羅臼流氷下",
                "desc": "冬限定、羅臼沖での流氷ダイビング。凍てつく流氷の下に広がる幻想的な世界を体験できます。クリオネやフウセンウオ、ダンゴウオなど、寒冷地のユニークな生物を間近で観察。水深は浅く穏やかですが、ドライスーツは必須です。",
                "latitude": 44.025,
                "longitude": 145.205,
                "id": "p_1765701796_知床・羅臼流氷下",
                "image": ""
              },
              {
                "name": "知床・知床岬沖",
                "desc": "知床半島の最先端に位置する秘境ポイント。手つかずの自然が残り、大型の深海魚や回遊魚に遭遇するチャンスも高いです。水深は深く、流れが強まることもあるため、経験豊富なダイバー向け。壮大なスケールを感じられます。",
                "latitude": 44.335,
                "longitude": 145.455,
                "id": "p_1765701796_知床・知床岬沖",
                "image": ""
              }
            ]
          },
          {
            "name": "利尻島・礼文島",
            "description": "日本最北の離島で、手つかずの豊かな海藻林が広がる。ウニやコンブが豊富で、固有種や北の海の生物を観察できる。",
            "id": "a_1765700105_利尻島・礼文島",
            "children": [
              {
                "name": "利尻島・南の根",
                "desc": "利尻島南東沖に広がる海域。水深20m前後で、夏場は多種多様な魚たちが群れをなし、運が良ければアザラシに出会えることも。穏やかな流れで初心者にもおすすめ。",
                "latitude": 45.15,
                "longitude": 141.35,
                "id": "p_1765701804_利尻島・南の根",
                "image": ""
              },
              {
                "name": "礼文島・西の断崖",
                "desc": "礼文島西岸に位置し、ダイナミックな断崖絶壁を海中から眺めることができる。水深は場所によって異なり、25m前後。キンコやウニなど、磯根の生物が豊富。",
                "latitude": 45.45,
                "longitude": 140.9,
                "id": "p_1765701804_礼文島・西の断崖",
                "image": ""
              },
              {
                "name": "利尻島・北の漁礁",
                "desc": "利尻島北部に広がる人工漁礁。水深30m前後で、季節ごとに様々な魚が集まる。特に秋にはイカの群れが見られることも。水深があるので経験者向け。",
                "latitude": 45.25,
                "longitude": 141.25,
                "id": "p_1765701804_利尻島・北の漁礁",
                "image": ""
              },
              {
                "name": "礼文島・北の灯台下",
                "desc": "礼文島最北端の灯台付近の海域。水深15m前後で、手軽に楽しめるポイント。海藻が豊かで、小魚や甲殻類が多く見られる。透明度が高い日が多い。",
                "latitude": 45.5,
                "longitude": 141.0,
                "id": "p_1765701804_礼文島・北の灯台下",
                "image": ""
              },
              {
                "name": "利尻島・沈船ポイント",
                "desc": "利尻島沿岸に沈む船。水深25m前後で、自然の人工礁と化している。魚の住処となり、様々な種類の魚たちが集まる。独特の雰囲気が楽しめる。",
                "latitude": 45.18,
                "longitude": 141.3,
                "id": "p_1765701804_利尻島・沈船ポイント",
                "image": ""
              }
            ]
          },
          {
            "name": "小樽・札幌周辺（忍路・祝津）",
            "description": "札幌からのアクセスが良い湾内ポイントが多い。ソイやカジカ、タコなどが見られ、初心者から楽しめる。ナイトダイビングも盛ん。",
            "id": "a_1765700105_小樽・札幌周辺（忍路・祝津）",
            "children": [
              {
                "name": "忍路湾・沈船ポイント",
                "desc": "忍路湾の沖合に沈む船。船体は崩壊していますが、生物の住処となっており、タコやカサゴ、時にはヒラメなども見られます。水深は15m前後で、流れは穏やかなことが多いです。",
                "latitude": 43.175,
                "longitude": 140.965,
                "id": "p_1765701812_忍路湾・沈船ポイント",
                "image": ""
              },
              {
                "name": "祝津・魚礁ポイント",
                "desc": "祝津沖に設置された魚礁。様々な魚が集まりやすく、真鯛やメバル、カサゴなどがよく見られます。水深は20m前後で、潮の干満によっては多少流れが出ることもあります。",
                "latitude": 43.182,
                "longitude": 140.998,
                "id": "p_1765701812_祝津・魚礁ポイント",
                "image": ""
              },
              {
                "name": "忍路・水深30mドロップオフ",
                "desc": "忍路湾の海岸線から沖に向かって急激に落ち込む地形。水深30m付近からさらに深くなり、ハナダイの群れや、深場に生息する生物が見られることがあります。流れに注意が必要です。",
                "latitude": 43.17,
                "longitude": 140.97,
                "id": "p_1765701812_忍路・水深30mドロップオフ",
                "image": ""
              },
              {
                "name": "祝津・海藻の森",
                "desc": "祝津の浅場に広がる海藻群生地帯。ケルプなどが茂り、小魚や甲殻類が多く生息しています。水中写真の被写体としても人気。水深は5〜10m程度で、流れはほとんどありません。",
                "latitude": 43.185,
                "longitude": 140.995,
                "id": "p_1765701812_祝津・海藻の森",
                "image": ""
              },
              {
                "name": "忍路・洞窟ポイント",
                "desc": "忍路湾にある小さな洞窟。奥にはアオリイカやタコが隠れていることがあり、探検気分を味わえます。水深は10m前後で、エントリー・エキジットに注意が必要です。",
                "latitude": 43.178,
                "longitude": 140.968,
                "id": "p_1765701812_忍路・洞窟ポイント",
                "image": ""
              }
            ]
          }
        ]
      },
      {
        "name": "東北（宮城・岩手など）",
        "type": "Zone",
        "description": "冷たい親潮と温かい黒潮の影響が混在する海域で、マクロ生物の宝庫として知られる。アメフラシやウミウシ、カエルアンコウなど、ユニークな生物の観察がメイン。ダイナミックな地形や、豊かな海藻（海中林）の風景も魅力。",
        "id": "z_1765695941_1",
        "displayOrder": 2,
        "children": [
          {
            "name": "女川・牡鹿半島エリア（宮城県）",
            "description": "豊かなソフトコーラルとマクロ生物が魅力。レアなウミウシや甲殻類が多く、四季折々の生命力に満ちた海を楽しめる。",
            "id": "a_1765700112_女川・牡鹿半島エリア（宮城県）",
            "children": [
              {
                "name": "女川 乙女根",
                "desc": "宮城県女川町沖に位置するダイビングスポット。魚影が濃く、春には産卵期のタチウオ、夏にはイサキの群れや、時期によっては回遊魚が見られることも。水深は10m～25m程度で、流れは穏やかなことが多い。",
                "latitude": 38.415,
                "longitude": 141.45,
                "id": "p_1765701819_女川 乙女根",
                "image": ""
              },
              {
                "name": "牡鹿半島 沖の鳥",
                "desc": "牡鹿半島の沖合に点在する根周りのポイント。根にはキンメモドキやタカベなどが集まり、季節によってはクエなどの大型魚も期待できる。水深は15m～30mで、潮の流れがある場合がある。",
                "latitude": 38.37,
                "longitude": 141.53,
                "id": "p_1765701819_牡鹿半島 沖の鳥",
                "image": ""
              },
              {
                "name": "女川 砂漠",
                "desc": "女川湾内にある砂地のダイビングポイント。掘り下げると珍しい生物が見つかることも。アナゴやハゼの仲間、タコなどが生息。水深は5m～15mと浅めで、初心者にもおすすめ。",
                "latitude": 38.42,
                "longitude": 141.43,
                "id": "p_1765701819_女川 砂漠",
                "image": ""
              },
              {
                "name": "牡鹿半島 寒風沢",
                "desc": "寒風沢周辺の海域に広がるポイント。岩場にはスズメダイの群れや、アオリイカが産卵している様子が見られる。水深は15m～25mで、潮通しが良い場所では魚影が濃い。",
                "latitude": 38.39,
                "longitude": 141.5,
                "id": "p_1765701819_牡鹿半島 寒風沢",
                "image": ""
              },
              {
                "name": "女川 観音島",
                "desc": "観音島周辺のダイビングスポット。水底は変化に富んでおり、岩場にはベラやハゼの仲間、イソギンチャクなどが多く見られる。水深は10m～20mで、比較的穏やかなコンディションが多い。",
                "latitude": 38.41,
                "longitude": 141.46,
                "id": "p_1765701819_女川 観音島",
                "image": ""
              }
            ]
          },
          {
            "name": "南三陸・志津川湾エリア（宮城県）",
            "description": "ホヤ棚の下に広がる独特の生態系。ダンゴウオやタツノオトシゴなどのマクロ生物の宝庫で、静かで穏やかな湾内ダイブが人気。",
            "id": "a_1765700112_南三陸・志津川湾エリア（宮城県）",
            "children": [
              {
                "name": "志津川湾・観音崎",
                "desc": "穏やかな湾内にある人気スポット。水深5m～15m。春には桜、夏には海藻、秋には紅葉と四季折々の景色が楽しめる。ハナゴイやタカノハダイなどの魚影が濃い。初心者から上級者まで楽しめる。",
                "latitude": 38.6748,
                "longitude": 141.4334,
                "id": "p_1765701826_志津川湾・観音崎",
                "image": ""
              },
              {
                "name": "志津川湾・高田松原",
                "desc": "かつてあった高田松原の水中景観を偲ぶポイント。砂地が広がり、時折ミノカサゴやイシガキダイが見られる。水深10m～20m。海底には震災の爪痕も残るが、生命の息吹も感じられる。",
                "latitude": 38.6601,
                "longitude": 141.4267,
                "id": "p_1765701826_志津川湾・高田松原",
                "image": ""
              },
              {
                "name": "志津川湾・水深ポイント",
                "desc": "湾の沖合に位置するドロップオフ。水深20m～30m。クロマグロやブリなどの大型回遊魚が狙えることも。潮の流れがあるため、経験者向け。透明度が高ければ、ダイナミックな地形を楽しめる。",
                "latitude": 38.652,
                "longitude": 141.445,
                "id": "p_1765701826_志津川湾・水深ポイント",
                "image": ""
              },
              {
                "name": "志津川湾・藻場",
                "desc": "海底に広がる豊かな海藻地帯。水深8m～18m。アメフラシやダンゴウオ、イソカサゴなど、小さな生き物たちの宝庫。マクロ撮影に最適。潮通しの良い場所では、群れが見られることも。",
                "latitude": 38.679,
                "longitude": 141.428,
                "id": "p_1765701826_志津川湾・藻場",
                "image": ""
              },
              {
                "name": "志津川湾・岩礁帯",
                "desc": "湾内に点在する岩礁。水深10m～25m。タナゴやメジナ、アイゴなどが多く見られる。岩の隙間にはハゼやエビなども生息。探求心をくすぐられるポイント。",
                "latitude": 38.6685,
                "longitude": 141.438,
                "id": "p_1765701826_志津川湾・岩礁帯",
                "image": ""
              }
            ]
          },
          {
            "name": "碁石海岸・三陸エリア（岩手県）",
            "description": "ダイナミックな水中地形が特徴。ケーブやトンネル、北方系の生物が多く見られ、高透明度で雄大な景色が広がる。",
            "id": "a_1765700112_碁石海岸・三陸エリア（岩手県）",
            "children": [
              {
                "name": "碁石海岸・黒崎",
                "desc": "変化に富んだ地形が魅力。キンギョハナダイの群れや、時期によってはホヤ、ウニ、アメフラシなどが豊富に見られる。水深は最大20m程度で、初心者から楽しめる。",
                "latitude": 39.05,
                "longitude": 141.77,
                "id": "p_1765701833_碁石海岸・黒崎",
                "image": ""
              },
              {
                "name": "碁石海岸・神割崎",
                "desc": "断崖絶壁からのエントリーが印象的。水中には洞窟やクレバスがあり、探検気分を味わえる。ハタタテダイや、甲殻類なども観察できる。水深は最大25m。",
                "latitude": 39.0,
                "longitude": 141.8,
                "id": "p_1765701833_碁石海岸・神割崎",
                "image": ""
              },
              {
                "name": "大船渡・千畳敷",
                "desc": "広大な海中地形が広がるポイント。水深は比較的浅く、20m前後。アジやイワシの群れに遭遇することも。穏やかなコンディションの日が多い。",
                "latitude": 39.08,
                "longitude": 141.72,
                "id": "p_1765701833_大船渡・千畳敷",
                "image": ""
              },
              {
                "name": "大船渡・漁火",
                "desc": "根の周りに魚が集まりやすいポイント。時期によってはマダコや、根魚の姿も。水深は25m程度。流れがある場合もあるので注意。",
                "latitude": 39.09,
                "longitude": 141.7,
                "id": "p_1765701833_大船渡・漁火",
                "image": ""
              },
              {
                "name": "綾里湾・赤崎",
                "desc": "湾内は穏やかなコンディションが多く、初心者にも安心。沈船があり、それを中心に魚が集まる。水深は20m程度。",
                "latitude": 39.12,
                "longitude": 141.68,
                "id": "p_1765701833_綾里湾・赤崎",
                "image": ""
              }
            ]
          },
          {
            "name": "田野畑・北山崎エリア（岩手県）",
            "description": "豪快なリアス式海岸が織りなす水中景観。魚影が濃く、北方系と南方系生物が混在するユニークな環境で、ドリフトダイビングも楽しめる。",
            "id": "a_1765700112_田野畑・北山崎エリア（岩手県）",
            "children": [
              {
                "name": "田野畑・北山崎 沖の根",
                "desc": "北山崎の沖合に広がるダイナミックな地形。ドロップオフやクレパスが点在し、ダイナミックな水中景観を楽しめる。夏場はキンメダイやメバル、冬場はタラなどが期待できる。潮の流れはやや速い場合がある。水深は20m～40m。",
                "latitude": 39.8687,
                "longitude": 142.0089,
                "id": "p_1765701841_田野畑・北山崎 沖の根",
                "image": ""
              },
              {
                "name": "田野畑・北山崎 崎の鼻",
                "desc": "北山崎の断崖の真下あたりに位置するポイント。比較的穏やかな海況で、春から夏にかけては色とりどりの海藻が茂り、小魚の群れが観察できる。秋から冬にかけては、キタムラサキウニやアメフラシなども見られる。水深は15m～25m。",
                "latitude": 39.8652,
                "longitude": 142.0051,
                "id": "p_1765701841_田野畑・北山崎 崎の鼻",
                "image": ""
              },
              {
                "name": "田野畑・北山崎 漁港前",
                "desc": "田野畑漁港の沖合に広がるエリア。港湾部と外洋の地形が混在し、岩礁帯や砂地が見られる。ハナダイやメジナ、イシダイなど、比較的一般的な魚が多く見られる。初心者にもおすすめしやすいポイント。水深は10m～20m。",
                "latitude": 39.8598,
                "longitude": 142.0015,
                "id": "p_1765701841_田野畑・北山崎 漁港前",
                "image": ""
              },
              {
                "name": "田野畑・北山崎 海底洞窟",
                "desc": "北山崎の断崖の水中部分に、自然に形成された洞窟が点在する。光が差し込む様子は幻想的。洞窟内や周辺では、タコやカサゴなどの根魚が見られることが多い。潮の流れによっては、洞窟へのエントリーやエキジットに注意が必要。水深は20m～30m。",
                "latitude": 39.8671,
                "longitude": 142.0072,
                "id": "p_1765701841_田野畑・北山崎 海底洞窟",
                "image": ""
              },
              {
                "name": "田野畑・北山崎 東のテラス",
                "desc": "北山崎の沖合、東側に広がる緩やかなテラス状の地形。岩場には様々な海藻が生い茂り、小魚の住処となっている。時期によっては、アオリイカの産卵も見られる。比較的流れが穏やかな日が多い。水深は18m～28m。",
                "latitude": 39.8705,
                "longitude": 142.0118,
                "id": "p_1765701841_田野畑・北山崎 東のテラス",
                "image": ""
              }
            ]
          }
        ]
      },
      {
        "name": "伊豆半島",
        "type": "Zone",
        "description": "首都圏からのアクセスが良好な本州の主要ダイビングエリア。年間を通して多様な水中生物が生息し、沈船やダイナミックな地形、マクロ生物観察などバラエティ豊かなダイビングが楽しめる。",
        "id": "z_1765695941_2",
        "displayOrder": 3,
        "children": [
          {
            "name": "東伊豆海岸線（伊豆海洋公園・富戸など）",
            "description": "都心からのアクセスに優れ、穏やかなビーチとボートポイントが豊富。初心者からベテランまで楽しめる施設充実エリア。",
            "id": "a_1765700122_東伊豆海岸線（伊豆海洋公園・富戸など）",
            "children": [
              {
                "name": "東伊豆・伊豆海洋公園「ドロップオフ」",
                "desc": "水深20mから深くなるドロップオフ。キンギョハナダイの群れや、運が良ければ回遊魚も見られる。流れがある場合もあるため注意が必要。",
                "latitude": 34.718,
                "longitude": 139.101,
                "id": "p_1765701848_東伊豆・伊豆海洋公園「ドロップオフ」",
                "image": ""
              },
              {
                "name": "東伊豆・富戸「ヨコバマ」",
                "desc": "富戸の代表的なポイント。手軽に潜れる浅場から、地形を楽しめる場所まで変化に富む。イサキやタカベの群れ、イロカエルアンコウなども人気。",
                "latitude": 34.841,
                "longitude": 139.114,
                "id": "p_1765701848_東伊豆・富戸「ヨコバマ」",
                "image": ""
              },
              {
                "name": "東伊豆・城ヶ崎「ニシキ」",
                "desc": "城ヶ崎海岸の代表的なポイント。大きな根があり、キンギョハナダイやタカベなどが群れをなす。水深は比較的浅めだが、潮の流れに注意。",
                "latitude": 34.748,
                "longitude": 139.096,
                "id": "p_1765701848_東伊豆・城ヶ崎「ニシキ」",
                "image": ""
              },
              {
                "name": "東伊豆・川奈「ビーチ」",
                "desc": "初心者にも人気のビーチポイント。手軽にエントリーでき、様々な魚に出会える。アジやネンブツダイの群れ、タツノオトシゴなども観察できる。",
                "latitude": 34.777,
                "longitude": 139.108,
                "id": "p_1765701849_東伊豆・川奈「ビーチ」",
                "image": ""
              },
              {
                "name": "東伊豆・八幡野「オオツブ根」",
                "desc": "八幡野のメインポイントの一つ。水深10m付近にある大きな根には、キンギョハナダイがびっしり。地形も変化に富み、洞窟もある。",
                "latitude": 34.822,
                "longitude": 139.107,
                "id": "p_1765701849_東伊豆・八幡野「オオツブ根」",
                "image": ""
              }
            ]
          },
          {
            "name": "西伊豆地形（雲見・田子・大瀬崎など）",
            "description": "複雑な洞窟、アーチ、ケーブなどダイナミックな水中地形が魅力。魚影も濃く、写真派にも人気。",
            "id": "a_1765700122_西伊豆地形（雲見・田子・大瀬崎など）",
            "children": [
              {
                "name": "雲見・牛着岩",
                "desc": "西伊豆を代表する地形ポイント。アーチや洞窟、ドロップオフがあり、地形ダイビングの醍醐味を味わえる。キンメモドキの群れや、時期によってはマクロ生物も豊富。水深は5m〜30m。",
                "latitude": 34.715,
                "longitude": 138.776,
                "id": "p_1765701856_雲見・牛着岩",
                "image": ""
              },
              {
                "name": "田子・沈船",
                "desc": "海面に沈む沈船が特徴的なポイント。船体周辺には魚影が濃く、時期によってはコブダイの姿も。水深は10m〜25m。比較的流れは緩やかなことが多い。",
                "latitude": 34.702,
                "longitude": 138.763,
                "id": "p_1765701856_田子・沈船",
                "image": ""
              },
              {
                "name": "大瀬崎・大瀬",
                "desc": "富士山を望む絶景ポイント。湾内は穏やかで初心者にも人気。湾外にはドロップオフや沈み瀬があり、変化に富んだダイビングが楽しめる。水深は5m〜30m。",
                "latitude": 35.006,
                "longitude": 138.754,
                "id": "p_1765701856_大瀬崎・大瀬",
                "image": ""
              },
              {
                "name": "戸田・船戸",
                "desc": "沈船や巨大な岩が点在するポイント。水深が比較的深く、20m〜40m。回遊魚や大物に出会えるチャンスがある。地形もダイナミック。",
                "latitude": 34.947,
                "longitude": 138.718,
                "id": "p_1765701856_戸田・船戸",
                "image": ""
              },
              {
                "name": "黄金崎・水中公園",
                "desc": "海岸線に沿って広がるダイビングポイント。湾内は地形も面白く、マクロ生物も観察しやすい。水深は5m〜20m。初心者から楽しめる。",
                "latitude": 34.809,
                "longitude": 138.74,
                "id": "p_1765701856_黄金崎・水中公園",
                "image": ""
              }
            ]
          },
          {
            "name": "南伊豆黒潮（神子元島・中木など）",
            "description": "黒潮の影響を受け透明度が高く、大物狙いの人気エリア。特に神子元島はハンマーヘッドシャークの群れで有名。",
            "id": "a_1765700122_南伊豆黒潮（神子元島・中木など）",
            "children": [
              {
                "name": "南伊豆神子元島：ドロップオフ",
                "desc": "水深40mを超える壮大なドロップオフ。ハンマーヘッドシャークの群れに遭遇することも。流れが速い場合があるので注意。アオウミガメや回遊魚も多く見られる。",
                "latitude": 34.73,
                "longitude": 138.96,
                "id": "p_1765701863_南伊豆神子元島：ドロップオフ",
                "image": ""
              },
              {
                "name": "南伊豆中木：沈船（ロクハン）",
                "desc": "老朽化した漁船が沈んでおり、魚の住処となっている。キンギョハナダイやスズメダイの群れ、時にはタチウオやハタなども。比較的浅い水深で、初心者にもおすすめ。",
                "latitude": 34.67,
                "longitude": 138.93,
                "id": "p_1765701863_南伊豆中木：沈船（ロクハン）",
                "image": ""
              },
              {
                "name": "南伊豆中木：ドクロ",
                "desc": "特徴的な岩の地形が「ドクロ」のように見えることから名付けられた。水深は20m前後で、サンゴやキンギョハナダイの群れが美しい。流れは穏やかな日が多い。",
                "latitude": 34.67,
                "longitude": 138.93,
                "id": "p_1765701863_南伊豆中木：ドクロ",
                "image": ""
              },
              {
                "name": "南伊豆神子元島：カド",
                "desc": "神子元島の外洋に面したポイント。潮通しが良く、回遊魚や大型魚が集まりやすい。ハンマーヘッドシャークの目撃情報も多い。水深は深め。",
                "latitude": 34.73,
                "longitude": 138.97,
                "id": "p_1765701863_南伊豆神子元島：カド",
                "image": ""
              },
              {
                "name": "南伊豆中木：ドリフト",
                "desc": "潮の流れに乗って移動するドリフトダイビングが楽しめるポイント。地形の変化に富み、様々な生物を効率的に観察できる。水深はポイントによって異なる。",
                "latitude": 34.67,
                "longitude": 138.93,
                "id": "p_1765701863_南伊豆中木：ドリフト",
                "image": ""
              }
            ]
          }
        ]
      },
      {
        "name": "伊豆大島",
        "type": "Zone",
        "description": "東京から高速船で約2時間以内とアクセスが良く、雄大な黒潮の影響を受けるため高透明度を誇る。ウミガメとの遭遇率が高く、ダイナミックな火山性の地形や、カラフルな魚の群れ、マクロ生物観察も楽しめる。特に秋～冬の透明度は抜群。",
        "id": "z_1765695941_3",
        "displayOrder": 4,
        "children": [
          {
            "name": "秋の浜・弘之浜",
            "description": "複雑な地形と豊かな生物層が魅力。マクロ派からワイド派まで楽しめる、大島を代表する人気ポイント。",
            "id": "a_1765700131_秋の浜・弘之浜",
            "children": [
              {
                "name": "秋の浜・ offshore",
                "desc": "水深15mからドロップオフが始まり、キンギョハナダイの群れや、時期によってはイサキの群れが見られます。岩場にはハナミノカサゴやウツボも多く、タカクラタマゴタケも観察できます。",
                "latitude": 34.7395,
                "longitude": 139.3788,
                "id": "p_1765701871_秋の浜・ offshore",
                "image": ""
              },
              {
                "name": "秋の浜・ reef",
                "desc": "秋の浜のメインエリア。浅場はサンゴやイソギンチャクが広がり、カクレクマノミやスズメダイの仲間が豊富。季節によってはウミウシの宝庫としても知られています。",
                "latitude": 34.7402,
                "longitude": 139.3795,
                "id": "p_1765701871_秋の浜・ reef",
                "image": ""
              },
              {
                "name": "弘之浜・ inner",
                "desc": "港内からエントリーできる穏やかなポイント。水深は浅く、初心者や体験ダイビングにも最適。イシダイやメジナなどの小魚が多く、海藻類も豊かです。",
                "latitude": 34.7258,
                "longitude": 139.3852,
                "id": "p_1765701871_弘之浜・ inner",
                "image": ""
              },
              {
                "name": "弘之浜・ outer",
                "desc": "外洋に面したポイント。水深は徐々に深くなり、時期によっては回遊魚に出会えることも。岩礁帯にはハタの仲間や、多様な甲殻類が生息しています。",
                "latitude": 34.7245,
                "longitude": 139.386,
                "id": "p_1765701871_弘之浜・ outer",
                "image": ""
              },
              {
                "name": "秋の浜・ cave",
                "desc": "秋の浜の沖合にある洞窟。光のカーテンが差し込む様子は幻想的。内部にはハタンポやアカマツカサの群れが見られ、運が良ければテングハギモドキも観察できます。",
                "latitude": 34.738,
                "longitude": 139.377,
                "id": "p_1765701871_秋の浜・ cave",
                "image": ""
              }
            ]
          },
          {
            "name": "野田浜・ケイカイ",
            "description": "高い透明度とダイナミックな地形が特徴。アーチや洞窟探検もでき、回遊魚の群れも見られる可能性が高い。",
            "id": "a_1765700131_野田浜・ケイカイ",
            "children": [
              {
                "name": "野田浜・ケイカイ 西の根",
                "desc": "野田浜の西側に位置する根。ソフトコーラルが美しく、ハナダイの仲間が豊富。水深は10m～20m。流れは穏やかなことが多い。",
                "latitude": 34.75,
                "longitude": 139.35,
                "id": "p_1765701877_野田浜・ケイカイ 西の根",
                "image": ""
              },
              {
                "name": "野田浜・ケイカイ 砂地",
                "desc": "根の周辺に広がる砂地。カスザメやミノカサゴ、イソギンチャクモエビなどが見られる。水深は10m～20m。流れは穏やか。",
                "latitude": 34.75,
                "longitude": 139.351,
                "id": "p_1765701877_野田浜・ケイカイ 砂地",
                "image": ""
              },
              {
                "name": "野田浜・ケイカイ ホンコン",
                "desc": "名前の由来は不明だが、港の入り口付近のポイント。岩場にイシダイなどが多く、冬場はタツノオトシゴが見られることも。水深10m～20m。",
                "latitude": 34.749,
                "longitude": 139.353,
                "id": "p_1765701877_野田浜・ケイカイ ホンコン",
                "image": ""
              }
            ]
          },
          {
            "name": "王の浜・差木地",
            "description": "比較的波が穏やかで、初心者にも優しいエリア。砂地と根が広がり、甲殻類やハゼ類などのマクロ生物が豊富。",
            "id": "a_1765700131_王の浜・差木地",
            "children": [
              {
                "name": "王の浜・沖の根",
                "desc": "水深5mから20mにかけて広がる根。キンギョハナダイやスズメダイの群れが美しい。稀にクエやカンパチが見られることも。潮の流れは穏やかなことが多い。",
                "latitude": 34.729,
                "longitude": 139.397,
                "id": "p_1765701884_王の浜・沖の根",
                "image": ""
              },
              {
                "name": "王の浜・アーチ",
                "desc": "水深10m～25mに広がる岩のアーチ。アーチをくぐったり、周りを回遊したりと地形を楽しめる。イサキやタカベの群れ、ウツボなどが見られる。",
                "latitude": 34.728,
                "longitude": 139.398,
                "id": "p_1765701884_王の浜・アーチ",
                "image": ""
              },
              {
                "name": "王の浜・ドロップオフ",
                "desc": "水深20mから40mにかけてのドロップオフ。マクロ生物から回遊魚まで観察できる。ツバメウオやイソマグロが見られることも。潮の流れがある場合も。",
                "latitude": 34.727,
                "longitude": 139.399,
                "id": "p_1765701885_王の浜・ドロップオフ",
                "image": ""
              },
              {
                "name": "差木地・沈船",
                "desc": "水深18mに沈む小さな沈船。色とりどりの魚たちに囲まれ、まるで天然の水族館。タテジマキンチャクダイやハナミノカサゴなど、様々な生物の住処となっている。",
                "latitude": 34.718,
                "longitude": 139.386,
                "id": "p_1765701885_差木地・沈船",
                "image": ""
              },
              {
                "name": "差木地・テトラ",
                "desc": "水深5m～15mのテトラポッドエリア。根魚の宝庫で、カサゴやハタ類が豊富。アナゴやミノカサゴもよく見られる。穏やかなコンディションで潜りやすい。",
                "latitude": 34.719,
                "longitude": 139.385,
                "id": "p_1765701885_差木地・テトラ",
                "image": ""
              },
              {
                "name": "差木地・外洋",
                "desc": "水深25m～40mの少し沖合のポイント。運が良ければクジラやイルカに遭遇する可能性も。ハナダイやスズメダイの群れも壮観。流れがあることが多い。",
                "latitude": 34.717,
                "longitude": 139.387,
                "id": "p_1765701885_差木地・外洋",
                "image": ""
              }
            ]
          },
          {
            "name": "トウシキ・筆島周辺（ボート）",
            "description": "ボートアクセスで、地形の面白さと回遊魚の群れが魅力。潮流に乗って大物との遭遇も期待できる。",
            "id": "a_1765700131_トウシキ・筆島周辺（ボート）",
            "children": [
              {
                "name": "トウシキ・沈船",
                "desc": "水深約10mの沈船ポイント。漁船が沈んでおり、魚たちの住処となっています。マクロ生物も多く、比較的流れも穏やかなので、初心者にもおすすめです。タイやイサキ、メジナなどが群れています。",
                "latitude": 34.73,
                "longitude": 139.37,
                "id": "p_1765701891_トウシキ・沈船",
                "image": ""
              },
              {
                "name": "トウシキ・ドロップオフ",
                "desc": "水深約30mまで落ち込むドロップオフ。大型回遊魚が期待できるポイント。運が良ければマンタやサメに出会えることも。潮の流れがある場合があるので注意が必要です。",
                "latitude": 34.74,
                "longitude": 139.37,
                "id": "p_1765701891_トウシキ・ドロップオフ",
                "image": ""
              },
              {
                "name": "筆島・岩",
                "desc": "伊豆大島を代表する地形ポイント。巨大な岩が海中にそびえ立ち、その周りにはキンメダイの群れや、キンメモドキ、カンパチなどが回遊しています。水深も比較的浅く、ダイナミックな地形を楽しめます。",
                "latitude": 34.76,
                "longitude": 139.4,
                "id": "p_1765701891_筆島・岩",
                "image": ""
              },
              {
                "name": "筆島・洞窟",
                "desc": "筆島周辺にある水中洞窟。光が差し込み、幻想的な雰囲気を醸し出します。洞窟内にはタチウオやミノカサゴなどが見られ、水中カメラマンにも人気のスポットです。エントリーには注意が必要。",
                "latitude": 34.76,
                "longitude": 139.41,
                "id": "p_1765701891_筆島・洞窟",
                "image": ""
              },
              {
                "name": "トウシキ・アーチ",
                "desc": "自然が作り出したアーチ状の地形が特徴。アーチをくぐり抜けるダイナミックな体験ができます。フタスジタマガシラやイシダイなど、様々な魚が見られます。地形を楽しみたいダイバーにおすすめ。",
                "latitude": 34.73,
                "longitude": 139.38,
                "id": "p_1765701891_トウシキ・アーチ",
                "image": ""
              }
            ]
          }
        ]
      },
      {
        "name": "八丈島",
        "type": "Zone",
        "description": "東京からアクセス可能ながら、黒潮のど真ん中に位置するため、一年を通して高透明度（平均20m以上）を誇る。巨大なアオウミガメとの遭遇率が非常に高く、固有種や南方系の珍しい大物・群れが魅力。ダイナミックな火山性のアーチや地形も楽しめる。",
        "id": "z_1765695941_4",
        "displayOrder": 5,
        "children": [
          {
            "name": "ナズマド周辺",
            "description": "八丈島を代表するドリフトダイビングポイント。激しい潮流の中、カンパチやイソマグロなどの回遊魚、時にはハンマーヘッドも狙える上級者向け。ダイナミックな地形も魅力です。",
            "id": "a_1765700140_ナズマド周辺",
            "children": [
              {
                "name": "ナズマド",
                "desc": "八丈島を代表するダイビングポイント。洞窟（ナズマド）があり、そこから差し込む光が幻想的。キンメモドキの群れや、運が良ければロウニンアジ、カンパチなどの大物にも出会える。水深は10m～25m程度。流れがある場合も。浅場から水深があり、地形も楽しめる。",
                "latitude": 33.071,
                "longitude": 139.742,
                "id": "p_1765701899_ナズマド",
                "image": ""
              },
              {
                "name": "八丈島・ナズマド北の根",
                "desc": "ナズマドの北側に広がる根。 沖合に張り出した根の周りには、キンギョハナダイやスズメダイの群れが挨拶してくれる。時期によってはイソマグロやロウニンアジなどの回遊魚も期待できる。水深は15m～30m。",
                "latitude": 33.072,
                "longitude": 139.743,
                "id": "p_1765701899_八丈島・ナズマド北の根",
                "image": ""
              },
              {
                "name": "八丈島・洞窟",
                "desc": "ナズマド周辺の海中洞窟。光が差し込む様子は神秘的で、写真撮影にも最適。洞窟内にはアカマツカサなどが生息。外にはキンメモドキの群れや、運が良ければマンタの接近も期待できる。水深は15m～25m。",
                "latitude": 33.0715,
                "longitude": 139.7425,
                "id": "p_1765701899_八丈島・洞窟",
                "image": ""
              },
              {
                "name": "八丈島・沈船",
                "desc": "ナズマドから少し離れた場所にある沈船ポイント。沈船の周りには様々な魚が集まり、ハタタテダイやチョウチョウウオ、時期によってはウミガメなども見られる。水深は20m～30m。人工漁礁のようにもなっている。",
                "latitude": 33.073,
                "longitude": 139.745,
                "id": "p_1765701899_八丈島・沈船",
                "image": ""
              }
            ]
          },
          {
            "name": "八重根・底土周辺",
            "description": "港周辺でエントリーしやすく、初心者から楽しめる穏やかなエリア。カラフルな熱帯魚の群れや、ウミガメとの遭遇率も高い。地形も複雑で、ワイドもマクロも充実しています。",
            "id": "a_1765700140_八重根・底土周辺",
            "children": [
              {
                "name": "八重根・南方根",
                "desc": "水深5mから25mにかけて広がる根。サンゴやイソバナが豊富で、キンギョハナダイの群れやタマン、イソマグロなどの回遊魚が見られる。潮通しも良く、時には流れがあるので注意。地形も面白い。",
                "latitude": 33.11,
                "longitude": 139.745,
                "id": "p_1765701907_八重根・南方根",
                "image": ""
              },
              {
                "name": "八重根・沈船",
                "desc": "水深15m〜25mに沈む船。人工漁礁となっており、キンメモドキやタカサゴの群れ、時にはウミガメやネムリブカなどが休息している姿も。船内へのエントリーも可能だが、安全に十分配慮が必要。",
                "latitude": 33.112,
                "longitude": 139.743,
                "id": "p_1765701907_八重根・沈船",
                "image": ""
              },
              {
                "name": "底土・湾内",
                "desc": "水深5m〜15mの穏やかな湾内。初心者やファンダイビングに最適。サンゴや熱帯魚が多く、ハナダイの群れやチョウチョウウオ、スズメダイなどが豊富。運が良ければクダゴンベにも会える。",
                "latitude": 33.115,
                "longitude": 139.75,
                "id": "p_1765701907_底土・湾内",
                "image": ""
              },
              {
                "name": "底土・外洋根",
                "desc": "水深20m〜30mにかけて広がる根。潮通しが良く、イソマグロの回遊やカツオ、時にはマンタの目撃情報もある。テラス状になっており、地形も楽しめる。流れがある場合が多い。",
                "latitude": 33.117,
                "longitude": 139.752,
                "id": "p_1765701907_底土・外洋根",
                "image": ""
              },
              {
                "name": "八重根・沈み瀬",
                "desc": "水深10m〜20mの海中に沈む岩。ハナダイやスズメダイが群れ、コバルトスズメダイやチョウチョウウオの仲間も多い。根の周りを回遊する小魚も魅力的。穏やかな日が多い。",
                "latitude": 33.111,
                "longitude": 139.746,
                "id": "p_1765701907_八重根・沈み瀬",
                "image": ""
              }
            ]
          },
          {
            "name": "乙千代ヶ浜周辺",
            "description": "穏やかな湾内で、砂地とサンゴ礁が広がる癒し系のポイント。ウミガメとの遭遇率が非常に高く、のんびりと泳ぐ姿を観察できます。マクロ生物も豊富で写真派にも人気です。",
            "id": "a_1765700140_乙千代ヶ浜周辺",
            "children": [
              {
                "name": "乙千代ヶ浜",
                "desc": "八丈島を代表する人気ポイント。沖合の根にはキンメモドキの群れが圧倒的な数で集まり、時期によってはマンタやサメに遭遇することも。水深は最大25m程度。流れは穏やかな日が多い。",
                "latitude": 33.118,
                "longitude": 139.749,
                "id": "p_1765701916_乙千代ヶ浜",
                "image": ""
              },
              {
                "name": "沈船（八丈海溝）",
                "desc": "水深30mを超えるダイナミックな沈船ポイント。船体には様々な生物が付着しており、ウミウシやエビ、カニなどの甲殻類が豊富。時期によっては回遊魚も期待できる。",
                "latitude": 33.115,
                "longitude": 139.752,
                "id": "p_1765701916_沈船（八丈海溝）",
                "image": ""
              },
              {
                "name": "八丈小島南",
                "desc": "八丈小島の南側にあるダイナミックな地形が魅力のポイント。ドロップオフが続き、大型回遊魚との遭遇率が高い。水深は深く、最大40mを超えることも。流れがある場合もある。",
                "latitude": 33.138,
                "longitude": 139.73,
                "id": "p_1765701916_八丈小島南",
                "image": ""
              },
              {
                "name": "底土（沖）",
                "desc": "乙千代ヶ浜とは少し沖合のポイント。こちらもキンメモドキの群れが期待できるが、より大型の回遊魚や、運が良ければマンタに遭遇することも。水深は20m前後。",
                "latitude": 33.12,
                "longitude": 139.75,
                "id": "p_1765701916_底土（沖）",
                "image": ""
              }
            ]
          },
          {
            "name": "小岩戸・大岩戸周辺",
            "description": "北部のダイナミックな地形が特徴のエリア。複雑に入り組んだ洞窟やアーチ、クレバスを巡る探検ダイビングが楽しめます。光のシャワーが美しいケーブもあり、地形派必見です。",
            "id": "a_1765700140_小岩戸・大岩戸周辺",
            "children": [
              {
                "name": "八丈小岩戸",
                "desc": "洞窟やアーチが点在し、神秘的な雰囲気を醸し出す。キンメモドキの群れや、運が良ければカンパチなどの大物にも出会える。水深は最大20m程度で、初心者から楽しめる。",
                "latitude": 33.1,
                "longitude": 139.79,
                "id": "p_1765701923_八丈小岩戸",
                "image": ""
              },
              {
                "name": "八丈大岩戸",
                "desc": "小岩戸よりも水深があり、ドリフトダイビングで地形を楽しめる。洞窟の出口付近にはキンメモドキが群れ、根にはハナミノカサゴなども見られる。水深は最大30m。",
                "latitude": 33.11,
                "longitude": 139.78,
                "id": "p_1765701923_八丈大岩戸",
                "image": ""
              },
              {
                "name": "八丈小岩戸ドーム",
                "desc": "小岩戸の沖合にあるドーム状の地形。オーバーハングが多く、キンギョハナダイやスズメダイが群れる。水深は20m前後で、水中写真にも適している。",
                "latitude": 33.09,
                "longitude": 139.8,
                "id": "p_1765701923_八丈小岩戸ドーム",
                "image": ""
              },
              {
                "name": "八丈大岩戸アーチ",
                "desc": "大岩戸の沖合に位置する大きなアーチ。アーチをくぐり抜けるダイナミックな地形が魅力。キンメモドキやツムブリの群れが見られることも。水深は最大30m。",
                "latitude": 33.12,
                "longitude": 139.77,
                "id": "p_1765701923_八丈大岩戸アーチ",
                "image": ""
              },
              {
                "name": "八丈大岩戸ドロップオフ",
                "desc": "大岩戸のさらに沖合で、急激なドロップオフが続く。深場にはアカハタなどが生息し、上層にはスズメダイやキンギョハナダイが舞う。大物狙いにも。",
                "latitude": 33.13,
                "longitude": 139.76,
                "id": "p_1765701923_八丈大岩戸ドロップオフ",
                "image": ""
              }
            ]
          }
        ]
      },
      {
        "name": "小笠原諸島",
        "type": "Zone",
        "description": "世界自然遺産に登録された手付かずの自然が残る秘境。高い透明度と固有種の多さ、大型回遊魚やクジラ・イルカとの遭遇率が高いことが特徴。アクセスは限られるが、唯一無二の体験ができる。",
        "id": "z_1765695941_5",
        "displayOrder": 6,
        "children": [
          {
            "name": "兄島・ケータ列島周辺",
            "description": "父島北部から兄島列島にかけて、ダイナミックな地形、沈船、洞窟が点在。大物回遊魚や魚群との遭遇率も高いエリアです。",
            "id": "a_1765700150_兄島・ケータ列島周辺",
            "children": [
              {
                "name": "兄島subdir（サブドライ）",
                "desc": "兄島の沖合に位置する洞窟ポイント。光が差し込む様子が幻想的。テングハギモドキの群れや、岩陰に隠れるハタ類が見られる。水深は15m～25m。穏やかな流れの日が多い。",
                "latitude": 26.95,
                "longitude": 142.18,
                "id": "p_1765701931_兄島subdir（サブドライ）",
                "image": ""
              },
              {
                "name": "ケータ列島・ニモの洞窟",
                "desc": "ケータ列島南側の海域にある、ニモ（カクレクマノミ）の棲み着く小さな洞窟。無数のカクレクマノミが営巣している様子は圧巻。周辺の岩礁にはタテジマキンチャクダイなどの熱帯魚も多い。水深10m～20m。",
                "latitude": 26.93,
                "longitude": 142.2,
                "id": "p_1765701931_ケータ列島・ニモの洞窟",
                "image": ""
              },
              {
                "name": "兄島・パテシエ",
                "desc": "兄島北東沖のドロップオフ。水深30mを超えるダイナミックな地形が広がる。回遊魚や、根に付いたハナダイ類、チョウチョウウオ類が豊富。時折マンタやマグロの群れに遭遇することも。流れはやや強め。",
                "latitude": 26.96,
                "longitude": 142.17,
                "id": "p_1765701931_兄島・パテシエ",
                "image": ""
              },
              {
                "name": "ケータ列島・カメさんがたくさん",
                "desc": "ケータ列島周辺で、アオウミガメに高確率で出会えるポイント。岩陰や根の上で休息する姿や、悠々と泳ぐ姿を観察できる。水深は10m～25m。穏やかなコンディションが多い。",
                "latitude": 26.92,
                "longitude": 142.19,
                "id": "p_1765701931_ケータ列島・カメさんがたくさん",
                "image": ""
              },
              {
                "name": "兄島・灯台下",
                "desc": "兄島東側の海域。水深15m～30mの根が点在し、イソマグロやロウニンアジなどの回遊魚が集まる。根の上にはキンギョハナダイやスズメダイの群れが見られ、賑やか。流れがある場合も。",
                "latitude": 26.94,
                "longitude": 142.18,
                "id": "p_1765701931_兄島・灯台下",
                "image": ""
              }
            ]
          },
          {
            "name": "南島・父島南部エリア",
            "description": "国指定天然記念物の南島をはじめ、ユニークな地形、固有種の観察が魅力。入り組んだ洞窟や白い砂地が美しいエリアです。",
            "id": "a_1765700150_南島・父島南部エリア",
            "children": [
              {
                "name": "南島・ widow's rock",
                "desc": "南島の沖合に位置し、切り立った岩が特徴的なポイント。  大型回遊魚やグルクン、カスミチョウチョウウオなどが群れをなし、運が良ければイルカに会えることも。  水深は15m〜25m、流れは穏やかなことが多い。",
                "latitude": 26.94,
                "longitude": 142.18,
                "id": "p_1765701937_南島・ widow's rock",
                "image": ""
              },
              {
                "name": "南島・ elephant's trunk",
                "desc": " elephant's trunk (象の鼻) と呼ばれる地形が印象的なダイブサイト。  アーチや洞窟があり、探検気分を味わえる。  ハナダイの仲間やテングハギモドキ、ウミガメなどが見られる。  水深10m〜20m。  流れは緩やか。",
                "latitude": 26.95,
                "longitude": 142.17,
                "id": "p_1765701937_南島・ elephant's trunk",
                "image": ""
              },
              {
                "name": "父島南部・ devil's chimney",
                "desc": "父島南部の沖合にある、細長い岩柱がそびえ立つユニークな地形。  カメやロウニンアジ、バラクーダの群れに遭遇することも。  水深20m〜30m。  流れが強まることがあるので注意。",
                "latitude": 27.04,
                "longitude": 142.19,
                "id": "p_1765701937_父島南部・ devil's chimney",
                "image": ""
              },
              {
                "name": "父島南部・ shark's alley",
                "desc": "父島南部の海域に位置し、その名の通りサメとの遭遇率が高いポイント。  時には数匹のサメが悠々と泳ぐ姿を見ることができる。  水深25m〜35m。  流れがあるので注意が必要。",
                "latitude": 27.03,
                "longitude": 142.18,
                "id": "p_1765701937_父島南部・ shark's alley",
                "image": ""
              },
              {
                "name": "南島・ dolphin bay",
                "desc": "南島の沖合に位置し、イルカが頻繁に現れることで知られる。  透明度も高く、水中でのイルカとの遭遇は感動的。  水深15m〜25m。  流れは穏やかな日が多い。",
                "latitude": 26.94,
                "longitude": 142.19,
                "id": "p_1765701937_南島・ dolphin bay",
                "image": ""
              }
            ]
          },
          {
            "name": "母島列島全域",
            "description": "父島から南へ約50km。手つかずの自然が残り、独特の固有種、サンゴ礁、マクロ生物、地形ダイビングが楽しめるエリアです。",
            "id": "a_1765700150_母島列島全域",
            "children": [
              {
                "name": "母島・沈船ポイント（旧漁船）",
                "desc": "沈んだ旧漁船が魚礁となっており、キンギョハナダイやハナダイの群れが美しい。テトラポット周辺にはハタ類やタマンなどの大型魚も期待できる。水深15m前後で流れは穏やかなことが多い。",
                "latitude": 26.63,
                "longitude": 142.18,
                "id": "p_1765701946_母島・沈船ポイント（旧漁船）",
                "image": ""
              },
              {
                "name": "乳房山沖・ヒゲ根",
                "desc": "乳房山沖に広がる根。水深は20m前後からドロップオフしており、アーチやクレパスが点在。イソマグロの回遊や、運が良ければロウニンアジ、ナポレオンフィッシュなどの大物に出会える。流れはやや強まることもある。",
                "latitude": 26.65,
                "longitude": 142.17,
                "id": "p_1765701946_乳房山沖・ヒゲ根",
                "image": ""
              },
              {
                "name": "中通島・コウモリ穴",
                "desc": "海底に開いた洞窟にエアーが溜まっているユニークなポイント。洞窟内は光が差し込み幻想的。洞窟周辺にはカスミアジやヨスジフエダイなどが群れ、浅瀬ではハゼ類なども観察できる。水深10m前後。",
                "latitude": 26.7,
                "longitude": 142.2,
                "id": "p_1765701946_中通島・コウモリ穴",
                "image": ""
              },
              {
                "name": "平瀬・ネコノテ",
                "desc": "海面から数メートル顔を出す岩礁。根の周りにはタイなどの魚影が濃く、イソマグロやカンパチなどの回遊魚も狙える。透明度が高く、青い海に映える景観が魅力。水深は15m～25m。",
                "latitude": 26.73,
                "longitude": 142.22,
                "id": "p_1765701946_平瀬・ネコノテ",
                "image": ""
              },
              {
                "name": "北島・キンメ狙い",
                "desc": "水深30m以深のダイナミックなドロップオフ。キンメダイの群れや、深場に生息するハタ類などが観察できる。潮通しが良く、大物狙いにも適している。経験者向けのポイント。",
                "latitude": 26.75,
                "longitude": 142.25,
                "id": "p_1765701946_北島・キンメ狙い",
                "image": ""
              }
            ]
          },
          {
            "name": "聟島・媒島列島方面（北部遠征）",
            "description": "遠征を要する北部エリア。高い透明度と手付かずの海中景観が魅力。回遊魚や大型生物の群れに出会える可能性が高いです。",
            "id": "a_1765700150_聟島・媒島列島方面（北部遠征）",
            "children": [
              {
                "name": "聟島・断崖の壁",
                "desc": "聟島の沖合に広がるダイナミックなドロップオフ。カスミアジやカンパチの群れ、運が良ければザトウクジラに出会えることも。水深は10mから30m超え、流れは中程度。",
                "latitude": 27.0,
                "longitude": 142.0,
                "id": "p_1765701954_聟島・断崖の壁",
                "image": ""
              },
              {
                "name": "媒島・潜水艦",
                "desc": "媒島沖の沈船ポイント。第二次世界大戦で沈んだ潜水艦の残骸が魚礁となっており、キンギョハナダイやハタ類が豊富。水深25m。流れは緩やか。",
                "latitude": 27.1,
                "longitude": 142.1,
                "id": "p_1765701954_媒島・潜水艦",
                "image": ""
              },
              {
                "name": "南硫黄島・南の根",
                "desc": "南硫黄島周辺の根周り。ツバメウオの巨大な群れや、時にはハンマーヘッドシャークの目撃情報もある。水深20m〜40m。流れは強めのこともあり要注意。",
                "latitude": 25.0,
                "longitude": 141.0,
                "id": "p_1765701954_南硫黄島・南の根",
                "image": ""
              },
              {
                "name": "鳥島・鳥の穴",
                "desc": "鳥島に点在する洞窟ポイント。外洋からの光が差し込み、神秘的な雰囲気。キンメモドキやイワシの群れ、ウミガメが見られる。水深15m〜25m。流れは穏やか。",
                "latitude": 24.0,
                "longitude": 141.0,
                "id": "p_1765701954_鳥島・鳥の穴",
                "image": ""
              },
              {
                "name": "父島・西の根",
                "desc": "父島沖の海山（かいざん）。マンタやイルカの遭遇率が高く、多種多様な回遊魚が観察できる。水深は20m〜50m。流れは発生しやすい。",
                "latitude": 27.0,
                "longitude": 142.0,
                "id": "p_1765701954_父島・西の根",
                "image": ""
              }
            ]
          }
        ]
      },
      {
        "name": "紀伊半島（串本など）",
        "type": "Zone",
        "description": "本州最南端に位置し、黒潮の影響を強く受けるため、熱帯魚と温帯魚が混在するユニークな生態系を持つ。美しいサンゴ礁（本州最大規模）やソフトコーラル、洞窟などの地形も魅力。",
        "id": "z_1765695941_6",
        "displayOrder": 7,
        "children": [
          {
            "name": "串本",
            "description": "本州最南端。世界最北限のテーブルサンゴ群落が広がり、回遊魚や多様な生態系が魅力。沈船や地形ポイントも。",
            "id": "a_1765700158_串本",
            "children": [
              {
                "name": "串本・海中公園 1号館",
                "desc": "沈船と人工漁礁があり、様々な魚が集まる初心者にも優しいスポット。水深は10～20m。運が良ければウミガメに会えることも。流れは穏やか。",
                "latitude": 33.476,
                "longitude": 135.784,
                "id": "p_1765701961_串本・海中公園 1号館",
                "image": ""
              },
              {
                "name": "串本・住崎",
                "desc": "串本を代表する人気ポイント。イサキの群れや、時期によってはマグロの回遊が見られることも。水深は5～30m。流れがある場合もあるため注意。",
                "latitude": 33.478,
                "longitude": 135.788,
                "id": "p_1765701961_串本・住崎",
                "image": ""
              },
              {
                "name": "串本・平島",
                "desc": "潮通しの良い地形が特徴で、ハナダイやキンギョハナダイが群れる。水深は5～30m。流れに注意が必要だが、ダイナミックな景観が楽しめる。",
                "latitude": 33.482,
                "longitude": 135.782,
                "id": "p_1765701961_串本・平島",
                "image": ""
              },
              {
                "name": "串本・銚子",
                "desc": "イソマグロの回遊が見られることで有名。他にもカスミアジやロウニンアジなど、大物に出会えるチャンスが多い。水深は10～30m。流れは中程度。",
                "latitude": 33.479,
                "longitude": 135.791,
                "id": "p_1765701961_串本・銚子",
                "image": ""
              },
              {
                "name": "串本・須江内",
                "desc": "イサキの根で知られ、無数のイサキが群れる光景は圧巻。水深は5～25m。流れは穏やかなことが多い。初心者からベテランまで楽しめる。",
                "latitude": 33.485,
                "longitude": 135.78,
                "id": "p_1765701961_串本・須江内",
                "image": ""
              }
            ]
          },
          {
            "name": "白浜",
            "description": "円月島で有名なリゾート地。ソフトコーラルが美しい海域や、沈船ポイント、マクロ生物観察も楽しめる。",
            "id": "a_1765700158_白浜",
            "children": [
              {
                "name": "白浜・沈船ポイント",
                "desc": "比較的浅い水深に沈められた沈船は、魚の住処となり、キンギョハナダイやタテジマキンチャクダイなど様々な魚が見られます。初心者にもおすすめ。",
                "latitude": 33.68,
                "longitude": 135.35,
                "id": "p_1765701968_白浜・沈船ポイント",
                "image": ""
              },
              {
                "name": "白浜・グラスワールド",
                "desc": "一面に広がる海藻や海草が特徴のポイント。アジの群れや、根魚、時にはタコなども観察できます。穏やかな流れのことが多いです。",
                "latitude": 33.69,
                "longitude": 135.36,
                "id": "p_1765701968_白浜・グラスワールド",
                "image": ""
              },
              {
                "name": "白浜・ラビット",
                "desc": "白浜の沖合に位置する根。水深があり、大きな根にはハタ類やイシダイなどが多く生息しています。潮通しが良いので、流れがあることも。",
                "latitude": 33.67,
                "longitude": 135.34,
                "id": "p_1765701968_白浜・ラビット",
                "image": ""
              },
              {
                "name": "白浜・テーブル",
                "desc": "平らな地形が広がるポイント。ソフトコーラルも多く、色鮮やかな海中景観が楽しめます。小物類も豊富で、マクロ撮影にも最適です。",
                "latitude": 33.68,
                "longitude": 135.35,
                "id": "p_1765701968_白浜・テーブル",
                "image": ""
              },
              {
                "name": "白浜・ネコ",
                "desc": "白浜の岩礁地帯。根の周りにはイサキやメジナの群れが見られ、時期によっては回遊魚の姿も。地形の変化も楽しめます。",
                "latitude": 33.69,
                "longitude": 135.36,
                "id": "p_1765701968_白浜・ネコ",
                "image": ""
              }
            ]
          },
          {
            "name": "須江",
            "description": "紀伊半島の隠れた名所。高い透明度と複雑な地形、豊かなソフトコーラルが特徴。冬季はダンゴウオの人気が高い。",
            "id": "a_1765700158_須江",
            "children": [
              {
                "name": "須江内浦ビーチ",
                "desc": "手軽に潜れるビーチポイント。穏やかな水面が多く、初心者から楽しめる。イサキの群れや、運が良ければタツノオトシゴにも出会える。水深は浅く、最大10m程度。",
                "latitude": 33.7,
                "longitude": 135.83,
                "id": "p_1765701976_須江内浦ビーチ",
                "image": ""
              },
              {
                "name": "須江名勝",
                "desc": "内浦ビーチからエントリーし、水深20mまで潜降する人気のポイント。大きな根があり、アオウミガメやテングハギモドキの群れなど、見どころ満載。流れがある場合も。",
                "latitude": 33.701,
                "longitude": 135.831,
                "id": "p_1765701976_須江名勝",
                "image": ""
              },
              {
                "name": "須江リトルアーチ",
                "desc": "名勝のさらに奥に広がるポイント。名前の通り、美しいアーチ状の地形が特徴。キンギョハナダイやハナゴンベなどが群れ、色鮮やかな水中景観を楽しめる。水深は15m〜25m。",
                "latitude": 33.702,
                "longitude": 135.832,
                "id": "p_1765701976_須江リトルアーチ",
                "image": ""
              },
              {
                "name": "須江サンド",
                "desc": "砂地が広がるポイント。ベニハゼやトラウツボなど、砂地に生息するユニークな生物を探すのに適している。潮通しも良く、様々な魚が回遊してくることも。水深10m〜20m。",
                "latitude": 33.703,
                "longitude": 135.833,
                "id": "p_1765701976_須江サンド",
                "image": ""
              },
              {
                "name": "須江ドロップオフ",
                "desc": "水深30mまで落ち込むドロップオフが特徴のポイント。キンギョハナダイやスミレナガハナダイなどが無数に群れ、華やかな水中景観を作り出す。流れに注意が必要。",
                "latitude": 33.704,
                "longitude": 135.834,
                "id": "p_1765701976_須江ドロップオフ",
                "image": ""
              }
            ]
          },
          {
            "name": "見老津",
            "description": "ダイナミックなアーチや洞窟などの地形が魅力。キンギョハナダイなどの群れや大物遭遇のチャンスも。",
            "id": "a_1765700158_見老津",
            "children": [
              {
                "name": "見老津・沖の根",
                "desc": "潮通しの良いドロップオフ。キンギョハナダイの群れは圧巻。時期によっては回遊魚も期待できる。水深は20m〜30m。流れがある場合も。",
                "latitude": 33.505,
                "longitude": 135.745,
                "id": "p_1765701983_見老津・沖の根",
                "image": ""
              },
              {
                "name": "見老津・地形ダイブ",
                "desc": "アーチやクレバスなど、地形の面白さが魅力。ネオンテトラやクダゴンベなど、マクロ生物も豊富。水深は15m〜25m。比較的流れは穏やか。",
                "latitude": 33.503,
                "longitude": 135.742,
                "id": "p_1765701983_見老津・地形ダイブ",
                "image": ""
              },
              {
                "name": "見老津・沈船",
                "desc": "沈船ポイント。船上にはソフトコーラルがびっしり。タチウオやハタ類など、魚影も濃い。水深は25m〜35m。流れに注意。",
                "latitude": 33.506,
                "longitude": 135.75,
                "id": "p_1765701983_見老津・沈船",
                "image": ""
              },
              {
                "name": "見老津・サンゴ畑",
                "desc": "色とりどりのサンゴが広がる癒やしのポイント。アジやイサキの群れが見られることも。水深は10m〜20m。流れはほぼなし。",
                "latitude": 33.502,
                "longitude": 135.74,
                "id": "p_1765701983_見老津・サンゴ畑",
                "image": ""
              },
              {
                "name": "見老津・イソマグロの根",
                "desc": "イソマグロの回遊が見られる可能性のあるポイント。水深は30m〜40m。潮に注意が必要。大型回遊魚との出会いを期待。",
                "latitude": 33.507,
                "longitude": 135.755,
                "id": "p_1765701983_見老津・イソマグロの根",
                "image": ""
              }
            ]
          }
        ]
      },
      {
        "name": "奄美大島",
        "type": "Zone",
        "description": "透明度の高い海と、世界自然遺産登録された豊かな自然が魅力。サンゴ礁と熱帯魚が多く、特に冬から春にかけて見られる「ネムリブカ（サメ）」の群れや、冬のザトウクジラ遭遇が有名。ウミウシなどのマクロ生物も豊富で、年間を通して楽しめる。",
        "id": "z_1765695941_7",
        "displayOrder": 8,
        "children": [
          {
            "name": "大島海峡エリア（瀬戸内町周辺）",
            "description": "加計呂麻島など離島との間、複雑な地形と潮流が生み出すダイナミックな水中世界。大物回遊魚からマクロまで豊富で、ドリフトダイビングも堪能できます。",
            "id": "a_1765700168_大島海峡エリア（瀬戸内町周辺）",
            "children": [
              {
                "name": "大島海峡・マンタシティー",
                "desc": "大島海峡の代表的なマンタスポット。水深10〜20mの根の周りをマンタがクリーニングにやってくる。遭遇率は高く、優雅に泳ぐ姿は圧巻。流れは緩やかなことが多い。",
                "latitude": 28.0,
                "longitude": 129.3,
                "id": "p_1765701991_大島海峡・マンタシティー",
                "image": ""
              },
              {
                "name": "大島海峡・デバスズメダイの根（通称：ブルーコーナー）",
                "desc": "無数のデバスズメダイが群れをなす、幻想的な景色が広がるポイント。水深15〜25m。カラフルな熱帯魚も多く、写真撮影にも最適。穏やかな流れの時が多い。",
                "latitude": 28.02,
                "longitude": 129.32,
                "id": "p_1765701991_大島海峡・デバスズメダイの根（通称：ブルーコーナー）",
                "image": ""
              },
              {
                "name": "大島海峡・ヨコバタ",
                "desc": "広大なサンゴ礁が広がるポイント。水深10〜20m。色とりどりのソフトコーラルやハードコーラルが群生し、色々な種類の魚が見られる。流れは多少ある場合も。",
                "latitude": 27.98,
                "longitude": 129.28,
                "id": "p_1765701991_大島海峡・ヨコバタ",
                "image": ""
              },
              {
                "name": "大島海峡・ニシハマ",
                "desc": "砂地と根が点在するポイント。水深10〜20m。アジのトルネードが見られることも。ウミガメとの遭遇率も高い。比較的流れは穏やか。",
                "latitude": 28.01,
                "longitude": 129.31,
                "id": "p_1765701991_大島海峡・ニシハマ",
                "image": ""
              },
              {
                "name": "大島海峡・カメ吉ポイント",
                "desc": "ウミガメが多く見られることで知られるポイント。水深15〜25m。ヤドカリやナマコなども多く、マクロ生物も楽しめる。穏やかながら、時折流れが出ることも。",
                "latitude": 27.99,
                "longitude": 129.3,
                "id": "p_1765701991_大島海峡・カメ吉ポイント",
                "image": ""
              }
            ]
          },
          {
            "name": "本島北部（笠利・龍郷湾）",
            "description": "穏やかな湾内が多く、色鮮やかなサンゴ礁が広がる。初心者からベテランまで楽しめ、マクロ生物の宝庫であり、ウミガメとの遭遇率も高いエリアです。",
            "id": "a_1765700168_本島北部（笠利・龍郷湾）",
            "children": [
              {
                "name": "笠利・龍郷湾北部 mangrove",
                "desc": "マングローブの森が広がり、稚魚や甲殻類、海鳥の宝庫。干潮時でも楽しめる浅瀬。水中は穏やかで、初心者にも安心。干潟の生き物観察も面白い。",
                "latitude": 28.44,
                "longitude": 129.36,
                "id": "p_1765701998_笠利・龍郷湾北部 mangrove",
                "image": ""
              },
              {
                "name": "笠利・龍郷湾北部 coral garden",
                "desc": "広大なサンゴ礁が広がり、多種多様な熱帯魚が乱舞。タカサゴやチョウチョウウオの群れは圧巻。水深も浅めで、透明度も良い日が多い。慶良間諸島に似た地形。",
                "latitude": 28.45,
                "longitude": 129.37,
                "id": "p_1765701998_笠利・龍郷湾北部 coral garden",
                "image": ""
              },
              {
                "name": "笠利・龍郷湾北部 deep wall",
                "desc": "ダイナミックなドロップオフが続くポイント。水深もあり、ガーデンイールやハタ、運が良ければサメも見られる。流れがある場合もあるので注意が必要。",
                "latitude": 28.46,
                "longitude": 129.38,
                "id": "p_1765701998_笠利・龍郷湾北部 deep wall",
                "image": ""
              },
              {
                "name": "笠利・龍郷湾北部 wreck",
                "desc": "沈船が沈むポイント。船体はサンゴで覆われ、魚たちの住処となっている。アジやイサキの群れ、エイなどがよく見られる。水深はやや深め。",
                "latitude": 28.43,
                "longitude": 129.35,
                "id": "p_1765701998_笠利・龍郷湾北部 wreck",
                "image": ""
              },
              {
                "name": "笠利・龍郷湾北部 canyon",
                "desc": "海中にできた自然の渓谷。地形が面白く、アーチやクレバスを巡る。クマノミやニモたちが住み着き、写真撮影にも適している。透明度も良好。",
                "latitude": 28.44,
                "longitude": 129.36,
                "id": "p_1765701998_笠利・龍郷湾北部 canyon",
                "image": ""
              }
            ]
          },
          {
            "name": "本島西海岸（手広・崎原）",
            "description": "外洋に面し、迫力ある地形と濃い魚影が魅力。冬季はザトウクジラに遭遇する可能性もあり、ワイドからマクロまで幅広いダイビングが楽しめます。",
            "id": "a_1765700168_本島西海岸（手広・崎原）",
            "children": [
              {
                "name": "手広湾北の根",
                "desc": "手広湾の北側に位置する根。浅場はサンゴが美しく、キンギョハナダイやスズメダイの群れが見られます。水深は5m〜15m。流れは穏やかなことが多いです。",
                "latitude": 28.287,
                "longitude": 129.442,
                "id": "p_1765702005_手広湾北の根",
                "image": ""
              },
              {
                "name": "手広湾中央の根",
                "desc": "手広湾中央部にあるドロップオフ。水深20mからドロップオフしており、ロウニンアジやカスミチョウチョウウオなどの大物が見られることも。流れがある場合もあります。",
                "latitude": 28.285,
                "longitude": 129.44,
                "id": "p_1765702005_手広湾中央の根",
                "image": ""
              },
              {
                "name": "崎原アーチ",
                "desc": "崎原の沖合にあるアーチ状の地形。アーチをくぐったり、周回したりして楽しめます。アーチ付近にはキンメモドキの群れや、根に住むハナダイ類が見られます。水深10m〜20m。",
                "latitude": 28.295,
                "longitude": 129.438,
                "id": "p_1765702005_崎原アーチ",
                "image": ""
              },
              {
                "name": "崎原ホール",
                "desc": "崎原の海中に開いた大きな穴。水深15m付近にあり、穴の奥にはハナゴンベなどの固有種が見られることも。光のカーテンが幻想的です。流れは場所により変化します。",
                "latitude": 28.297,
                "longitude": 129.437,
                "id": "p_1765702005_崎原ホール",
                "image": ""
              },
              {
                "name": "手広湾南の根",
                "desc": "手広湾の南側に広がる地形。浅場にはテーブルサンゴなどが広がり、熱帯魚が多く生息。根の周りにはイソマグロの群れが現れることも。水深5m〜18m。",
                "latitude": 28.283,
                "longitude": 129.444,
                "id": "p_1765702005_手広湾南の根",
                "image": ""
              }
            ]
          },
          {
            "name": "名瀬湾・小宿エリア",
            "description": "奄美市街地から近くアクセス抜群。沈船ポイントや人工魚礁があり、カラフルなサンゴ礁と多種多様なマクロ生物が観察できる、手軽に楽しめるエリアです。",
            "id": "a_1765700168_名瀬湾・小宿エリア",
            "children": [
              {
                "name": "名瀬湾・カメさんポイント",
                "desc": "名瀬湾に位置し、アオウミガメとの遭遇率が高い人気スポット。浅瀬にはサンゴも広がり、多様な小魚が見られる。穏やかな流れが多く、初心者にもおすすめ。",
                "latitude": 28.36,
                "longitude": 129.51,
                "id": "p_1765702013_名瀬湾・カメさんポイント",
                "image": ""
              },
              {
                "name": "小宿・崎本",
                "desc": "小宿エリアの沖合に位置するダイビングポイント。ドロップオフが美しく、キンギョハナダイやスミレナガハナダイが群れる。水深は深めだが、地形がダイナミックで変化に富む。",
                "latitude": 28.34,
                "longitude": 129.53,
                "id": "p_1765702013_小宿・崎本",
                "image": ""
              },
              {
                "name": "名瀬湾・沈船ポイント",
                "desc": "名瀬湾の海底に沈む船がポイント。船体には様々な海洋生物が集まり、隠れ根のようになっている。ロウニンアジやカスミアジなどの回遊魚が見られることも。",
                "latitude": 28.37,
                "longitude": 129.5,
                "id": "p_1765702013_名瀬湾・沈船ポイント",
                "image": ""
              },
              {
                "name": "小宿・テトリ",
                "desc": "小宿エリアにある、なだらかな根が広がるポイント。サンゴが豊かで、チョウチョウウオやスズメダイの仲間が豊富。穏やかな地形で、マクロ生物探しも楽しい。",
                "latitude": 28.35,
                "longitude": 129.52,
                "id": "p_1765702013_小宿・テトリ",
                "image": ""
              },
              {
                "name": "名瀬湾・漁礁",
                "desc": "名瀬湾内に設置された漁礁がポイント。魚が集まりやすく、色とりどりの魚たちを観察できる。比較的浅い水深なので、のんびりダイビングを楽しみたい方に最適。",
                "latitude": 28.36,
                "longitude": 129.51,
                "id": "p_1765702013_名瀬湾・漁礁",
                "image": ""
              }
            ]
          }
        ]
      },
      {
        "name": "鹿児島（屋久島・種子島など）",
        "type": "Zone",
        "description": "薩南諸島（屋久島、種子島、トカラ列島）は黒潮の恩恵を強く受け、年間を通して魚種が豊富。屋久島ではダイナミックな地形や、独特な固有種が見られ、種子島では浅場のサンゴが美しい。トカラ列島は世界的な大物の回遊ルートであり、上級者向けのワイルドなダイビングが楽しめる。",
        "id": "z_1765695941_8",
        "displayOrder": 9,
        "children": [
          {
            "name": "屋久島周辺",
            "description": "世界遺産の島ならではの豊かな生態系。サンゴ礁、回遊魚、マクロ生物、ダイナミックな地形ダイブが魅力です。",
            "id": "a_1765700178_屋久島周辺",
            "children": [
              {
                "name": "屋久島 豊福の鼻",
                "desc": "屋久島北東部、複雑な地形が特徴。ドロップオフやアーチがあり、マダラトビエイやアカククリなどの大物が見られることも。水深は20m前後、流れは中程度。",
                "latitude": 30.36,
                "longitude": 130.64,
                "id": "p_1765702020_屋久島 豊福の鼻",
                "image": ""
              },
              {
                "name": "屋久島 照葉樹",
                "desc": "屋久島北西部、サンゴ礁が広がる人気のポイント。色とりどりのサンゴや、チョウチョウウオ、スズメダイなど、小物から中型の魚たちが群れる。水深は10m～20m、流れは穏やか。",
                "latitude": 30.4,
                "longitude": 130.5,
                "id": "p_1765702020_屋久島 照葉樹",
                "image": ""
              },
              {
                "name": "屋久島 栗生",
                "desc": "屋久島西部、砂地と根が点在するポイント。ウミガメとの遭遇率が高く、その他にもハゼ類やゴマモンガラなども見られる。水深は15m前後、流れは弱め。",
                "latitude": 30.33,
                "longitude": 130.4,
                "id": "p_1765702020_屋久島 栗生",
                "image": ""
              },
              {
                "name": "屋久島 永田",
                "desc": "屋久島北西部、透明度が高く、穏やかなコンディションが多い。イソマグロの群れや、稀にマンタに出会えることも。水深は20m～30m、流れは潮次第。",
                "latitude": 30.44,
                "longitude": 130.48,
                "id": "p_1765702020_屋久島 永田",
                "image": ""
              },
              {
                "name": "屋久島 尾之間",
                "desc": "屋久島南部、ドロップオフが印象的なポイント。キンメモドキの群れや、ロウニンアジなどの回遊魚が見られる。水深は25m～40m、流れは強くなることもある。",
                "latitude": 30.28,
                "longitude": 130.55,
                "id": "p_1765702020_屋久島 尾之間",
                "image": ""
              }
            ]
          },
          {
            "name": "種子島周辺",
            "description": "黒潮が育む美しいサンゴ礁と大物回遊魚が魅力。アーチや洞窟など独特の水中地形も楽しめます。",
            "id": "a_1765700178_種子島周辺",
            "children": [
              {
                "name": "竹崎（タケザキ）",
                "desc": "水深5～20m。サンゴ礁が広がり、熱帯魚が豊富。イソマグロの群れやウミガメに会えることも。流れは穏やかなことが多い。",
                "latitude": 30.58,
                "longitude": 130.98,
                "id": "p_1765702027_竹崎（タケザキ）",
                "image": ""
              },
              {
                "name": "西之浦（ニシノウラ）",
                "desc": "水深5～25m。沈船ポイントとしても有名。船体周辺にはハタ類やネムリブカなどが見られる。地形も面白く、変化に富む。",
                "latitude": 30.65,
                "longitude": 130.95,
                "id": "p_1765702027_西之浦（ニシノウラ）",
                "image": ""
              },
              {
                "name": "鉄砲場（テッポウバ）",
                "desc": "水深10～30m。ドロップオフが特徴的で、アカマツカサなどの根魚や、時期によっては回遊魚が見られる。流れがある場合も。",
                "latitude": 30.6,
                "longitude": 131.02,
                "id": "p_1765702027_鉄砲場（テッポウバ）",
                "image": ""
              },
              {
                "name": "砂辺（スナベ）",
                "desc": "水深5～15m。砂地が広がり、ハゼ類やチンアナゴなどを観察できる。浅いので初心者にもおすすめ。透明度が高い日が多い。",
                "latitude": 30.55,
                "longitude": 130.99,
                "id": "p_1765702027_砂辺（スナベ）",
                "image": ""
              },
              {
                "name": "八間（ハッケン）",
                "desc": "水深15～35m。岩礁地帯で、イサキやタカベなどの群れが期待できる。潮通しが良く、ダイナミックな景観。",
                "latitude": 30.7,
                "longitude": 131.05,
                "id": "p_1765702027_八間（ハッケン）",
                "image": ""
              }
            ]
          },
          {
            "name": "口永良部島周辺",
            "description": "屋久島の西に位置する火山島。ダイナミックな海底地形、温泉が湧き出る海中、回遊魚も豊富です。",
            "id": "a_1765700178_口永良部島周辺",
            "children": [
              {
                "name": "口永良部島・本村沖（口之永良部・本村沖）",
                "desc": "噴火湾からの湧昇流が特徴。サンゴ群生や、ハナミノカサゴ、テングハギモドキなどの群れが見られます。水深は5～20m。流れは穏やかなことが多いです。",
                "latitude": 30.16,
                "longitude": 130.25,
                "id": "p_1765702034_口永良部島・本村沖（口之永良部・本村沖）",
                "image": ""
              },
              {
                "name": "口永良部島・西之浦沖（口之永良部・西之浦沖）",
                "desc": "沈船ポイント。沈船の周りにはキンギョハナダイやハナダイが群れ、タチウオなどが潜んでいます。水深は15～25m。流れは多少あることも。",
                "latitude": 30.15,
                "longitude": 130.23,
                "id": "p_1765702034_口永良部島・西之浦沖（口之永良部・西之浦沖）",
                "image": ""
              },
              {
                "name": "口永良部島・前浜（口之永良部・前浜）",
                "desc": "穏やかな湾内。砂地にはダイビングで人気のチンアナゴやヤシャハゼが見られます。初心者にもおすすめ。水深は5～15m。流れはほとんどありません。",
                "latitude": 30.17,
                "longitude": 130.26,
                "id": "p_1765702034_口永良部島・前浜（口之永良部・前浜）",
                "image": ""
              },
              {
                "name": "口永良部島・大根（口之永良部・大根）",
                "desc": "ドロップオフが特徴的なポイント。キンギョハナダイの群れや、運が良ければ回遊魚にも出会えます。水深は15～30m。流れがある場合も。",
                "latitude": 30.14,
                "longitude": 130.21,
                "id": "p_1765702034_口永良部島・大根（口之永良部・大根）",
                "image": ""
              },
              {
                "name": "口永良部島・沖の瀬（口之永良部・沖の瀬）",
                "desc": "水深のあるポイントで、時にはマンタやカモメ（イルカ）が見られることも。沈み瀬には魚影が濃いです。水深は20m以上。流れに注意。",
                "latitude": 30.13,
                "longitude": 130.2,
                "id": "p_1765702034_口永良部島・沖の瀬（口之永良部・沖の瀬）",
                "image": ""
              }
            ]
          },
          {
            "name": "トカラ列島北部（口之島・中之島）",
            "description": "黒潮の幹線に近く、ハンマーヘッドやギンガメアジの群れなど、大物回遊魚の宝庫。秘境感も満載です。",
            "id": "a_1765700178_トカラ列島北部（口之島・中之島）",
            "children": [
              {
                "name": "口之島・南方沖",
                "desc": "潮通しの良いドロップオフ。イソマグロの回遊、ロウニンアジ、カスミアジなどが狙える。時期によってはマンタの群れにも遭遇。水深は25m〜。流れは強めの場合あり。",
                "latitude": 30.47,
                "longitude": 130.15,
                "id": "p_1765702042_口之島・南方沖",
                "image": ""
              },
              {
                "name": "中之島・大棚",
                "desc": "大きな根が点在するダイビングポイント。ハタ類、カスミアジ、カンパチなど大型魚が多い。キンギョハナダイの群れや、時期によってはサメの姿も。水深15m〜。",
                "latitude": 30.29,
                "longitude": 129.93,
                "id": "p_1765702042_中之島・大棚",
                "image": ""
              },
              {
                "name": "口之島・黒崎",
                "desc": "岩礁地帯にクマノミやチョウチョウウオなどの小魚が豊富。根の周りにはイシダイやイシガキダイ、タマモンガラなども見られる。水深10m〜。",
                "latitude": 30.49,
                "longitude": 130.17,
                "id": "p_1765702042_口之島・黒崎",
                "image": ""
              },
              {
                "name": "中之島・沖の瀬",
                "desc": "水深のあるポイントで、回遊魚の宝庫。イソマグロ、ロウニンアジ、ツムブリなどの群れに遭遇するチャンス大。運が良ければイルカの群れも。水深30m〜。",
                "latitude": 30.27,
                "longitude": 129.95,
                "id": "p_1765702042_中之島・沖の瀬",
                "image": ""
              },
              {
                "name": "口之島・湾内",
                "desc": "比較的流れが穏やかなポイント。サンゴも多く、熱帯魚が豊富。ハナダイの群れや、アオウミガメに出会えることも。初心者にもおすすめ。水深10m〜。",
                "latitude": 30.48,
                "longitude": 130.16,
                "id": "p_1765702042_口之島・湾内",
                "image": ""
              }
            ]
          }
        ]
      },
      {
        "name": "沖縄本島・慶良間諸島",
        "type": "Zone",
        "description": "日本を代表するダイビングエリアの一つ。高透明度の海、色鮮やかなサンゴ礁、豊富な熱帯魚が魅力。特に慶良間諸島は世界有数の透明度を誇り、ドリフトダイビングも盛ん。",
        "id": "z_1765695941_9",
        "displayOrder": 10,
        "children": [
          {
            "name": "慶良間諸島北部（座間味島・渡嘉敷島周辺）",
            "description": "慶良間ブルーの象徴。砂地、サンゴ、地形、ウミガメとの遭遇が魅力。初心者から上級者まで楽しめる。",
            "id": "a_1765700187_慶良間諸島北部（座間味島・渡嘉敷島周辺）",
            "children": [
              {
                "name": "座間味島・古座間味ビーチ",
                "desc": "美しいサンゴ礁が広がる穏やかなビーチ。熱帯魚の群れやウミガメに会えることも。水深は浅く、初心者から楽しめる。透明度も高い。",
                "latitude": 26.37,
                "longitude": 127.35,
                "id": "p_1765702628_座間味島・古座間味ビーチ",
                "image": ""
              },
              {
                "name": "渡嘉敷島・アウン",
                "desc": "ドロップオフが印象的なポイント。ハナダイの群れや、運が良ければマグロなどの大物にも遭遇する可能性。水深は深め。",
                "latitude": 26.32,
                "longitude": 127.45,
                "id": "p_1765702628_渡嘉敷島・アウン",
                "image": ""
              },
              {
                "name": "座間味島・ニシバマ",
                "desc": "テーブルサンゴや枝サンゴが豊富で、カラフルな熱帯魚が多数生息。穏やかな流れで、水中景観を楽しむのに最適。ウミガメの遭遇率も高い。",
                "latitude": 26.38,
                "longitude": 127.36,
                "id": "p_1765702628_座間味島・ニシバマ",
                "image": ""
              },
              {
                "name": "渡嘉敷島・儀名崎",
                "desc": "地形がダイナミックなポイント。洞窟やアーチがあり、冒険心をくすぐる。キンギョハナダイやハナゴンベなどが見られる。流れに注意。",
                "latitude": 26.3,
                "longitude": 127.48,
                "id": "p_1765702628_渡嘉敷島・儀名崎",
                "image": ""
              },
              {
                "name": "座間味島・古座間味沖",
                "desc": "マンタの出現ポイントとして有名。クリーニングステーションがあり、マンタが優雅に泳ぐ姿を観察できる。潮の流れがある場合も。",
                "latitude": 26.36,
                "longitude": 127.34,
                "id": "p_1765702628_座間味島・古座間味沖",
                "image": ""
              }
            ]
          },
          {
            "name": "慶良間諸島南部（阿嘉島・慶留間島周辺）",
            "description": "ドリフトダイビングやドロップオフが多く、回遊魚や大物狙いに適している。ダイナミックな潜りが魅力。",
            "id": "a_1765700187_慶良間諸島南部（阿嘉島・慶留間島周辺）",
            "children": [
              {
                "name": "阿嘉島・北の根",
                "desc": "慶良間諸島でも指折りの人気スポット。色とりどりのサンゴ礁が広がり、デバスズメダイやチョウチョウウオなど多くの熱帯魚が群れる。水深は5m〜20m。流れは穏やかなことが多い。",
                "latitude": 26.159,
                "longitude": 127.352,
                "id": "p_1765702634_阿嘉島・北の根",
                "image": ""
              },
              {
                "name": "慶留間島・クロスライン",
                "desc": "慶良間海峡の速い流れが作る地形が特徴。キンギョハナダイの群れや、運が良ければマンタに出会えることも。水深は20m〜30m。流れがあるのでドリフトダイビングが中心。",
                "latitude": 26.148,
                "longitude": 127.368,
                "id": "p_1765702634_慶留間島・クロスライン",
                "image": ""
              },
              {
                "name": "慶留間島・ニシバマ",
                "desc": "透明度が高く、穏やかなコンディションの日が多い。砂地にはガーデンイール（チンアナゴ）が生息し、浅瀬のサンゴには熱帯魚が豊富。水深は5m〜15m。",
                "latitude": 26.14,
                "longitude": 127.36,
                "id": "p_1765702634_慶留間島・ニシバマ",
                "image": ""
              }
            ]
          },
          {
            "name": "沖縄本島中部（恩納村・読谷村周辺）",
            "description": "青の洞窟に代表される地形ダイビングが有名。ダイナミックな水中景観と豊富なマクロ生物が楽しめる。",
            "id": "a_1765700187_沖縄本島中部（恩納村・読谷村周辺）",
            "children": [
              {
                "name": "真栄田岬（まえだみさき） - 青の洞窟",
                "desc": "沖縄本島屈指のダイビングスポット。神秘的な青い光が差し込む洞窟は必見。洞窟内は水深5m程度、外は水深10m〜20m。流れは穏やかなことが多い。熱帯魚やウミガメに会えることも。",
                "latitude": 26.5209,
                "longitude": 127.9086,
                "id": "p_1765702641_真栄田岬（まえだみさき） - 青の洞窟",
                "image": ""
              },
              {
                "name": "万座ドリームホール",
                "desc": "巨大なドロップオフに開いた穴（ホール）が特徴。水深30mまで下り、ホールをくぐり抜けるスリリングな体験ができる。水深は最大40m。流れがある場合も。",
                "latitude": 26.5758,
                "longitude": 127.8803,
                "id": "p_1765702641_万座ドリームホール",
                "image": ""
              },
              {
                "name": "ナガンヌ島・北の根",
                "desc": "慶良間諸島に近い、透明度の高いポイント。サンゴ礁が広がり、カラフルな熱帯魚が豊富。水深は15m〜25m。流れは比較的穏やかで、初心者から楽しめる。",
                "latitude": 26.4496,
                "longitude": 127.6361,
                "id": "p_1765702641_ナガンヌ島・北の根",
                "image": ""
              },
              {
                "name": "山田（やまだ）",
                "desc": "砂地と根が混在するポイント。ウミガメがよく見られることで有名。水深は10m〜20m。砂地にはチンアナゴなども生息。流れは穏やかな日が多い。",
                "latitude": 26.51,
                "longitude": 127.9,
                "id": "p_1765702641_山田（やまだ）",
                "image": ""
              },
              {
                "name": "恩納村・観音崎（かんのんざき）",
                "desc": "リーフエッジが広がるダイビングポイント。水深15m〜25m。根には様々な魚が集まり、地形も楽しめる。流れは日によって変わるが、比較的穏やかなことも多い。",
                "latitude": 26.49,
                "longitude": 127.9,
                "id": "p_1765702641_恩納村・観音崎（かんのんざき）",
                "image": ""
              }
            ]
          },
          {
            "name": "沖縄本島南部・慶良間チービシ諸島",
            "description": "那覇からのアクセスが良く、穏やかなサンゴ礁や砂地が広がる。体験ダイビングや初心者講習に最適。",
            "id": "a_1765700187_沖縄本島南部・慶良間チービシ諸島",
            "children": [
              {
                "name": "慶良間チービシ・マンタスクランブル",
                "desc": "慶良間諸島を代表するポイント。多数のマンタが優雅に舞う姿は圧巻。運が良ければハナゴンベや白ヒレリソウジンコイも。水深15-20m、流れが穏やか。",
                "latitude": 26.5667,
                "longitude": 127.4167,
                "id": "p_1765702658_慶良間チービシ・マンタスクランブル",
                "image": ""
              },
              {
                "name": "慶良間チービシ・洞窟",
                "desc": "水中で太陽光が差し込む神秘的な洞窟ポイント。洞窟内にはソフトコーラルやグラスフィッシュが豊富。水深10-18m、洞窟内は無流れ。",
                "latitude": 26.55,
                "longitude": 127.4333,
                "id": "p_1765702658_慶良間チービシ・洞窟",
                "image": ""
              },
              {
                "name": "沖縄本島南部・黄金の壁",
                "desc": "那覇空港近くの人気のポイント。壁一面に黄金色のソフトコーラルが広がり、まるで絵画のような美しさ。ハナダイやチョウチョウウオが多数。水深10-25m、流れがやや強い時あり。",
                "latitude": 26.6333,
                "longitude": 127.5333,
                "id": "p_1765702658_沖縄本島南部・黄金の壁",
                "image": ""
              },
              {
                "name": "沖縄本島南部・伊計島・慶三崎",
                "desc": "伊計島の慶三崎。地形ポイントで、複雑な岩場や洞窟が点在。ウミガメや白ヒレリソウジンコイとの遭遇も期待できる。水深8-20m、流れが穏やか。",
                "latitude": 26.5833,
                "longitude": 127.6167,
                "id": "p_1765702658_沖縄本島南部・伊計島・慶三崎",
                "image": ""
              },
              {
                "name": "沖縄本島南部・ニライカナイ",
                "desc": "透明度抜群で、サンゴ礁が美しいポイント。ソフトコーラルやハードコーラルが織りなす景観は息をのむほど。熱帯魚の種類も豊富。水深10-20m、流れは穏やか。",
                "latitude": 26.6,
                "longitude": 127.5667,
                "id": "p_1765702658_沖縄本島南部・ニライカナイ",
                "image": ""
              }
            ]
          }
        ]
      },
      {
        "name": "石垣島・八重山諸島",
        "type": "Zone",
        "description": "マンタの群れに遭遇できる「マンタスクランブル」で世界的に有名。ダイナミックな地形、大物、群れなど、沖縄本島とは異なる個性豊かなダイビングが楽しめる。",
        "id": "z_1765695941_10",
        "displayOrder": 11,
        "children": [
          {
            "name": "石垣島 川平石崎・北部周辺",
            "description": "世界的に有名なマンタのクリーニングステーション。高確率でマンタと遭遇でき、迫力満点のダイビングが楽しめる。地形ポイントも豊富。",
            "id": "a_1765700196_石垣島 川平石崎・北部周辺",
            "children": [
              {
                "name": "川平石崎 マンタスクランブル",
                "desc": "川平湾に面したポイント。運が良ければマンタが複数回遊！ソフトコーラルが美しく、熱帯魚も豊富。水深は10-20m、流れは穏やかで初心者にもおすすめ。",
                "latitude": 24.4167,
                "longitude": 124.1667,
                "id": "p_1765702673_川平石崎 マンタスクランブル",
                "image": ""
              },
              {
                "name": "石崎 砂山",
                "desc": "石崎から近い砂地ポイント。ウミガメの遭遇率が非常に高い！ハタタテダイやゴンズイなどの根魚も多く、マクロ撮影にも最適。水深は8-15m、流れは穏やか。",
                "latitude": 24.41,
                "longitude": 124.17,
                "id": "p_1765702673_石崎 砂山",
                "image": ""
              },
              {
                "name": "川平湾 北の根",
                "desc": "川平湾の北側に位置する根周り。ソフトコーラルが群生し、色鮮やかな魚影が楽しめる。回遊魚も多く、ダイナミックな光景が広がる。水深は15-25m、流れは中程度。",
                "latitude": 24.42,
                "longitude": 124.15,
                "id": "p_1765702673_川平湾 北の根",
                "image": ""
              },
              {
                "name": "石垣島 北部 洞窟ポイント",
                "desc": "北部エリアにある洞窟ポイント。光が差し込む洞窟内は幻想的。ヤガラやハナダイなどが生息し、探検気分も味わえる。水深は10-18m、流れは穏やか。",
                "latitude": 24.43,
                "longitude": 124.14,
                "id": "p_1765702673_石垣島 北部 洞窟ポイント",
                "image": ""
              },
              {
                "name": "川平湾 外側の根",
                "desc": "川平湾の外側にある根周り。水深が深く、大物狙いにもおすすめ。回遊魚やソフトコーラルも豊富。経験者向け。水深は20-30m、流れはやや強い。",
                "latitude": 24.425,
                "longitude": 124.175,
                "id": "p_1765702673_川平湾 外側の根",
                "image": ""
              }
            ]
          },
          {
            "name": "竹富島・黒島・小浜島周辺",
            "description": "美しい白砂のポイントや広大なサンゴ礁が広がる穏やかな海域。地形やマクロも楽しめる。初心者からベテランまで人気。",
            "id": "a_1765700196_竹富島・黒島・小浜島周辺",
            "children": [
              {
                "name": "竹富島 マンタスクランブル",
                "desc": "竹富島を代表するマンタポイント。クリーニングステーションがあり、多数のマンタと遭遇できるチャンス大！水深15-20m、穏やかな流れ。",
                "latitude": 24.4167,
                "longitude": 124.2167,
                "id": "p_1765702686_竹富島 マンタスクランブル",
                "image": ""
              },
              {
                "name": "竹富島 仲間割れ",
                "desc": "地形ポイント。複雑な地形が広がり、ソフトコーラルやゴンズイなどが豊富。運が良ければオオカミサメも！水深10-25m、流れがやや強い時あり。",
                "latitude": 24.4333,
                "longitude": 124.2333,
                "id": "p_1765702686_竹富島 仲間割れ",
                "image": ""
              },
              {
                "name": "黒島 渡り浜の根",
                "desc": "黒島の人気ポイント。透明度が高く、サンゴ礁が美しい。ハナダイやチョウチョウウオなど、熱帯魚が多数生息。水深10-18m、穏やかな流れ。",
                "latitude": 24.3167,
                "longitude": 124.15,
                "id": "p_1765702686_黒島 渡り浜の根",
                "image": ""
              },
              {
                "name": "小浜島 八重干瀬（外側）",
                "desc": "八重干瀬のダイナミックな地形を楽しめるポイント。ソフトコーラルや海綿が広がり、回遊魚も多い。水深15-30m、流れが強い時あり。アドバンスライセンス推奨。",
                "latitude": 24.3833,
                "longitude": 124.1833,
                "id": "p_1765702686_小浜島 八重干瀬（外側）",
                "image": ""
              },
              {
                "name": "小浜島 慶良間海峡の根",
                "desc": "慶良間海峡に面したポイント。地形が変化に富み、ウミガメや白ソメと遭遇することも。水深12-20m、流れがやや強い時あり。",
                "latitude": 24.3667,
                "longitude": 124.2,
                "id": "p_1765702686_小浜島 慶良間海峡の根",
                "image": ""
              }
            ]
          },
          {
            "name": "西表島方面（網取・崎山湾など）",
            "description": "広大なテーブルサンゴ群落やダイナミックな地形が魅力。大物や回遊魚、多様な生物に出会える、アドレナリンが出る海。",
            "id": "a_1765700196_西表島方面（網取・崎山湾など）",
            "children": [
              {
                "name": "西表島 マンタスクランブル",
                "desc": "西表島を代表するマンタポイント。運が良ければ多数のマンタと遭遇可能。水深は15-25m程度で、流れは穏やか。ソフトコーラルも美しい。",
                "latitude": 24.3456,
                "longitude": 123.789,
                "id": "p_1765702699_西表島 マンタスクランブル",
                "image": ""
              },
              {
                "name": "網取 沖の根",
                "desc": "網取崎沖にある根。水深20-30m。ハンマーヘッドシャークの出現情報もあり。ソフトコーラルやゴンズイ、白イシモチなども見られる。流れが強くなる場合あり。",
                "latitude": 24.3123,
                "longitude": 123.7543,
                "id": "p_1765702699_網取 沖の根",
                "image": ""
              },
              {
                "name": "崎山湾 ドロップオフ",
                "desc": "崎山湾のドロップオフ。水深10-25m。ウミガメや熱帯魚が豊富。地形ポイントで、洞窟や割れ目も楽しめる。流れは比較的穏やか。",
                "latitude": 24.2876,
                "longitude": 123.721,
                "id": "p_1765702699_崎山湾 ドロップオフ",
                "image": ""
              },
              {
                "name": "西表島 鳩島沖の根",
                "desc": "鳩島沖にある根。水深18-28m。ナポレオンフィッシュやロウソクウオ、カツオドリなどが観察できる。流れが速い場合があるので注意が必要。",
                "latitude": 24.3678,
                "longitude": 123.8123,
                "id": "p_1765702699_西表島 鳩島沖の根",
                "image": ""
              },
              {
                "name": "網取 珊瑚の迷路",
                "desc": "網取崎周辺の複雑な珊瑚礁地帯。水深8-15m。多様な魚種が生息しており、マクロ生物も豊富。初心者にもおすすめのポイント。",
                "latitude": 24.321,
                "longitude": 123.7654,
                "id": "p_1765702699_網取 珊瑚の迷路",
                "image": ""
              }
            ]
          },
          {
            "name": "与那国島方面（海底遺跡・ハンマーヘッド）",
            "description": "世界で唯一の海底遺跡と、冬に群れるハンマーヘッドシャークが最大の魅力。経験者向けのダイナミックな海。",
            "id": "a_1765700196_与那国島方面（海底遺跡・ハンマーヘッド）",
            "children": [
              {
                "name": "与那国北の根",
                "desc": "ハンマーヘッドシャークの遭遇率が高いポイント。水深は15m～30m。比較的穏やかな流れで、ソフトコーラルも豊富。運が良ければウミガメも。",
                "latitude": 24.4333,
                "longitude": 122.9833,
                "id": "p_1765702711_与那国北の根",
                "image": ""
              },
              {
                "name": "海底遺跡ポイント",
                "desc": "沈没船の残骸が残る、歴史を感じさせるポイント。水深は18m～25m。ソフトコーラルに覆われ、多くの魚が集まる。流れは穏やかで初心者にもおすすめ。",
                "latitude": 24.4167,
                "longitude": 122.9667,
                "id": "p_1765702711_海底遺跡ポイント",
                "image": ""
              },
              {
                "name": "イソバナの根",
                "desc": "ハンマーヘッドシャーク、ナポレオンフィッシュ、バラクーダなどが観察できる。水深は20m～35m。流れが速い場合があるので、中級者以上向け。",
                "latitude": 24.45,
                "longitude": 122.95,
                "id": "p_1765702711_イソバナの根",
                "image": ""
              },
              {
                "name": "大原の根",
                "desc": "地形ポイント。複雑な地形が特徴で、ソフトコーラルやゴルゴンジアが美しい。水深は15m～25m。ウミガメや白ヒレタカシなどの遭遇も期待できる。",
                "latitude": 24.4,
                "longitude": 122.9333,
                "id": "p_1765702711_大原の根",
                "image": ""
              },
              {
                "name": "与那国南の根",
                "desc": "ハンマーヘッドシャークの観察ポイントとして有名。水深は20m～30m。流れが速い場合があり、経験豊富なダイバー向け。回遊魚の群れも期待できる。",
                "latitude": 24.3833,
                "longitude": 122.9833,
                "id": "p_1765702711_与那国南の根",
                "image": ""
              }
            ]
          }
        ]
      }
    ],
    "id": "r_1765695941"
  },
  {
    "name": "パラオ",
    "type": "Region",
    "children": [
      {
        "name": "コロール中心部と周辺ダイビングエリア",
        "type": "Zone",
        "description": "パラオのダイビングの中心となるエリアで、ブルーコーナー、ブルーホール、ジャーマンチャネル、ウーロンチャネルなど、世界的に有名なダイビングポイントが集中しています。宿泊施設やダイブショップが多く集まる拠点となり、初心者からベテランまで幅広いダイバーが楽しめます。",
        "id": "z_1765695952_0",
        "children": [
          {
            "name": "ロックアイランド内海エリア（穏やかなサンゴと沈船）",
            "description": "透明度の高い穏やかな海域に、色とりどりのソフトコーラル、歴史的な沈船、多種多様なマクロ生物が共存するエリア。",
            "id": "a_1765700209_ロックアイランド内海エリア（穏やかなサンゴと沈船）",
            "children": [
              {
                "name": "ロックアイランド・マンタスクランブル",
                "desc": "ロックアイランド内海で最も有名なポイント。穏やかな流れの中、マンタが頻繁に現れる。ソフトコーラルも豊富で、写真映えする。水深10-25m。初心者にもおすすめ。",
                "latitude": 4.1234,
                "longitude": 134.4567,
                "id": "p_1765702725_ロックアイランド・マンタスクランブル",
                "image": ""
              },
              {
                "name": "ネコジャラ",
                "desc": "サンゴ礁が発達した穏やかなポイント。ウミガメや白ヒレリクガメの遭遇率が高い。ソフトコーラルやハードコーラルが織りなす景観は圧巻。水深5-18m。流れは穏やか。",
                "latitude": 4.1567,
                "longitude": 134.489,
                "id": "p_1765702725_ネコジャラ",
                "image": ""
              },
              {
                "name": "千代丸沈船（ロックアイランド内海）",
                "desc": "第二次世界大戦中に沈んだ日本の貨物船。船体はサンゴに覆われ、魚たちの住処となっている。水深15-30m。ある程度のダイビングスキルが必要。",
                "latitude": 4.1111,
                "longitude": 134.4444,
                "id": "p_1765702725_千代丸沈船（ロックアイランド内海）",
                "image": ""
              },
              {
                "name": "ブルーコーナー・インナー",
                "desc": "ブルーコーナーの穏やかな内海側。ソフトコーラルが広がり、ナポレオンフィッシュやバラクーダなどの大物も見られる。水深10-20m。流れは比較的穏やか。",
                "latitude": 4.1,
                "longitude": 134.46,
                "id": "p_1765702725_ブルーコーナー・インナー",
                "image": ""
              },
              {
                "name": "ロックアイランド・ソフトコーラルガーデン",
                "desc": "色とりどりのソフトコーラルが広がる美しいポイント。ハナダイやチョウチョウウオなど、小魚の群れも楽しめる。水深8-15m。初心者向け。",
                "latitude": 4.1333,
                "longitude": 134.4777,
                "id": "p_1765702725_ロックアイランド・ソフトコーラルガーデン",
                "image": ""
              }
            ]
          },
          {
            "name": "ジャーマンチャネルと周辺のドロップオフ",
            "description": "マンタのクリーニングステーションとして世界的に有名。外洋からの栄養豊富な潮流が大物群れや美しいドロップオフを育む。",
            "id": "a_1765700209_ジャーマンチャネルと周辺のドロップオフ",
            "children": [
              {
                "name": "ジャーマンチャネル・インナー",
                "desc": "ジャーマンチャネルの奥深く。ソフトコーラルが美しく、ホワイトチップリーフシャーク、ナポレオンフィッシュ、バラクーダなどが頻繁に見られる。流れが強い場合あり。水深15-30m",
                "latitude": 4.138,
                "longitude": 134.162,
                "id": "p_1765702737_ジャーマンチャネル・インナー",
                "image": ""
              },
              {
                "name": "ジャーマンチャネル・アウター",
                "desc": "ジャーマンチャネルの入り口付近。マンタやサメの出現率が高く、ダイナミックな体験ができる。流れが非常に強い場合もあるため、経験者向け。水深10-25m",
                "latitude": 4.142,
                "longitude": 134.165,
                "id": "p_1765702737_ジャーマンチャネル・アウター",
                "image": ""
              },
              {
                "name": "ネコジャメシティ",
                "desc": "ジャーマンチャネル周辺の砂地エリア。ネコジャメの生息地として有名。ウミガメやエイなども多く、マクロ生物も豊富。水深5-18m",
                "latitude": 4.145,
                "longitude": 134.16,
                "id": "p_1765702737_ネコジャメシティ",
                "image": ""
              },
              {
                "name": "ブルーコーナー・ドロップオフ",
                "desc": "パラオを代表するドロップオフポイント。強流の中、ハンマーヘッドシャーク、ホワイトチップリーフシャーク、ナポレオンフィッシュなど大型魚が見られる。水深10-30m",
                "latitude": 4.15,
                "longitude": 134.155,
                "id": "p_1765702737_ブルーコーナー・ドロップオフ",
                "image": ""
              },
              {
                "name": "スネークアイランド・ドロップオフ",
                "desc": "スネークアイランドのドロップオフ。ウミヘビが多数生息し、ソフトコーラルや海扇が美しい。流れが穏やかな日もあり、初心者にもおすすめ。水深8-20m",
                "latitude": 4.16,
                "longitude": 134.15,
                "id": "p_1765702737_スネークアイランド・ドロップオフ",
                "image": ""
              }
            ]
          },
          {
            "name": "ウーロン島周辺のチャネルとウォール",
            "description": "ダイナミックなカレントが特徴で、グレイリーフシャークやナポレオン、巨大なハードコーラル群が圧巻の景観を創り出す。",
            "id": "a_1765700209_ウーロン島周辺のチャネルとウォール",
            "children": [
              {
                "name": "ウーロン島北チャネル",
                "desc": "ウーロン島の北側に位置するチャネル。ソフトコーラルが美しく、ナポレオンフィッシュやホワイトチップ・リーフシャーク、多数の熱帯魚が見られる。流れが速い場合あり。水深15-30m",
                "latitude": 4.15,
                "longitude": 134.65,
                "id": "p_1765702751_ウーロン島北チャネル",
                "image": ""
              },
              {
                "name": "ウーロン島西ウォール",
                "desc": "ウーロン島の西側にある垂直なウォール。ゴルゴンジアやソフトコーラルが豊富で、ハンマーヘッドシャークやウミガメ、バラクーダなどが現れることも。流れは穏やか。水深10-25m",
                "latitude": 4.12,
                "longitude": 134.58,
                "id": "p_1765702751_ウーロン島西ウォール",
                "image": ""
              },
              {
                "name": "ウーロン島東ウォール（キャッスル）",
                "desc": "ウーロン島の東側にあるウォール。地形が複雑で、まるで城壁のような岩場が特徴。ハタタテダイやイソギンチャク、ソフトコーラルが豊富。流れは穏やか。水深8-20m",
                "latitude": 4.18,
                "longitude": 134.7,
                "id": "p_1765702751_ウーロン島東ウォール（キャッスル）",
                "image": ""
              },
              {
                "name": "ウーロン島外側ドロップオフ",
                "desc": "ウーロン島から外海へドロップオフするポイント。深場からプランクトンが湧き上がり、マグロやカジキなどの回遊魚が見られる可能性も。経験者向け。水深20-40m",
                "latitude": 4.1,
                "longitude": 134.55,
                "id": "p_1765702751_ウーロン島外側ドロップオフ",
                "image": ""
              }
            ]
          },
          {
            "name": "ショートドロップオフ周辺の外洋リーフ",
            "description": "コロールからアクセスしやすい外洋に面したドロップオフ。イソマグロなどの回遊魚や、リーフに群れる小魚が豊富。",
            "id": "a_1765700209_ショートドロップオフ周辺の外洋リーフ",
            "children": [
              {
                "name": "ショートドロップオフ・マンタクリーニングステーション",
                "desc": "マンタのクリーニングステーションとして有名。多数のマンタが集まり、目の前を優雅に泳ぐ姿は圧巻。水深10-20m、流れは穏やかで初心者にもおすすめ。",
                "latitude": 4.1234,
                "longitude": 134.4567,
                "id": "p_1765702765_ショートドロップオフ・マンタクリーニングステーション",
                "image": ""
              },
              {
                "name": "ショートドロップオフ・外洋の根",
                "desc": "ショートドロップオフの外洋に位置する根。ナポレオンフィッシュ、マグロ、ホワイトチップ・リーフシャークなど大物に出会えるチャンス大。水深20-30m、流れが速い場合あり。",
                "latitude": 4.1111,
                "longitude": 134.4444,
                "id": "p_1765702765_ショートドロップオフ・外洋の根",
                "image": ""
              },
              {
                "name": "Ulong Channel (ウロンチャネル) 外洋側",
                "desc": "ウロンチャネルの出口付近。ソフトコーラルが美しく、ハナダイやチョウチョウウオなどの小魚が豊富。流れが速い場合があるので注意。水深15-25m。",
                "latitude": 4.1389,
                "longitude": 134.4622,
                "id": "p_1765702765_Ulong Channel (ウロンチャネル) 外洋側",
                "image": ""
              },
              {
                "name": "German Channel (ジャーマンチャネル) 外洋リーフ",
                "desc": "ジャーマンチャネルの周辺リーフ。マンタやウミガメの遭遇率が高い。地形も変化に富み、ソフトコーラルも美しい。水深10-20m、流れは穏やか。",
                "latitude": 4.15,
                "longitude": 134.47,
                "id": "p_1765702765_German Channel (ジャーマンチャネル) 外洋リーフ",
                "image": ""
              },
              {
                "name": "Blue Corner (ブルーコーナー) 外洋側スロープ",
                "desc": "ブルーコーナーのさらに外洋側にあるスロープ。ホワイトチップ・リーフシャーク、ナポレオンフィッシュ、バラクーダなど大物に出会える可能性が高い。流れが強い場合あり。水深20-35m。",
                "latitude": 4.1,
                "longitude": 134.43,
                "id": "p_1765702765_Blue Corner (ブルーコーナー) 外洋側スロープ",
                "image": ""
              }
            ]
          }
        ]
      },
      {
        "name": "ペリリュー島周辺",
        "type": "Zone",
        "description": "パラオ本島（バベルダオブ島）の南に位置するエリアで、激しい潮流と豊富な大物（サメ、バラクーダ、マグロなど）との遭遇率の高さで知られています。特にタイドランが有名で、第二次世界大戦の沈船（レック）も見られる上級者向けのポイントが多いです。",
        "id": "z_1765695952_1",
        "children": [
          {
            "name": "ペリリュー・コーナー周辺",
            "description": "ペリリュー島最南端。強烈な潮流と壮大なドロップオフが特徴。サメ、マグロ、バラクーダなどの大物回遊魚を狙うダイナミックなドリフトダイブ。",
            "id": "a_1765700221_ペリリュー・コーナー周辺",
            "children": [
              {
                "name": "ペリリュー・コーナー",
                "desc": "ペリリュー島先端のコーナー。ソフトコーラルが豊富で、ナポレオンフィッシュ、マグロ、サメなどの大物に出会えるチャンス大。流れが速い日も。水深15-30m",
                "latitude": 7.0333,
                "longitude": 130.1333,
                "id": "p_1765702778_ペリリュー・コーナー",
                "image": ""
              },
              {
                "name": "ペリリュー・ドロップオフ",
                "desc": "垂直に落ち込むドロップオフ。洞窟や割れ目にはホワイトチップ・リーフシャークが潜む。ソフトコーラルやゴルゴンジアも美しい。流れは穏やか。水深10-25m",
                "latitude": 7.0283,
                "longitude": 130.1283,
                "id": "p_1765702778_ペリリュー・ドロップオフ",
                "image": ""
              },
              {
                "name": "ペリリュー・トンネル",
                "desc": "第二次世界大戦時のトンネルが残るポイント。トンネル内には魚が集まり、独特の雰囲気。水深は浅く、初心者にもおすすめ。水深5-15m",
                "latitude": 7.0233,
                "longitude": 130.1233,
                "id": "p_1765702778_ペリリュー・トンネル",
                "image": ""
              },
              {
                "name": "ペリリュー・ガーデン",
                "desc": "ソフトコーラルが庭園のように広がるポイント。クマノミ、チョウチョウウオなど、色とりどりの小魚が多数。穏やかな流れで、リラックスできる。水深10-20m",
                "latitude": 7.0183,
                "longitude": 130.1183,
                "id": "p_1765702778_ペリリュー・ガーデン",
                "image": ""
              }
            ]
          },
          {
            "name": "ペリリュー・エクスプレス/カット周辺",
            "description": "ペリリュー島南東部。さらに強烈なカレントが特徴で、タイガーシャークを含むサメやギンガメアジの群れを狙うスリル満点のドリフトダイブ。",
            "id": "a_1765700221_ペリリュー・エクスプレス/カット周辺",
            "children": [
              {
                "name": "ペリリュー・エクスプレス",
                "desc": "沈没船。1944年に沈んだ日本の貨物船。ソフトコーラルに覆われ、魚影が豊富。水深15-30m、流れは穏やか。白ヒレリソウダツやナポレオンフィッシュが見られる。",
                "latitude": 7.0333,
                "longitude": 152.65,
                "id": "p_1765702791_ペリリュー・エクスプレス",
                "image": ""
              },
              {
                "name": "カット・スルー",
                "desc": "ペリリュー島とアメリアク島の間にある海峡。サンゴ礁が発達し、ソフトコーラルやハードコーラルが美しい。水深5-20m、流れが速い場合あり。ハタタテダイやゴンズキが見られる。",
                "latitude": 7.05,
                "longitude": 152.6667,
                "id": "p_1765702791_カット・スルー",
                "image": ""
              },
              {
                "name": "ホワイトビーチ・リーフ",
                "desc": "ホワイトビーチに面した浅瀬のリーフ。初心者にも最適。サンゴ礁が広がり、熱帯魚が豊富。水深3-10m、流れは穏やか。ウミガメやエイが見られることも。",
                "latitude": 7.04,
                "longitude": 152.63,
                "id": "p_1765702791_ホワイトビーチ・リーフ",
                "image": ""
              },
              {
                "name": "ペリリュー・ブルーホール",
                "desc": "水中で青く光る洞窟。神秘的な光景を楽しめる。水深15-25m、流れは穏やか。洞窟内にはソフトコーラルやスポンジが群生。",
                "latitude": 7.01,
                "longitude": 152.66,
                "id": "p_1765702791_ペリリュー・ブルーホール",
                "image": ""
              }
            ]
          },
          {
            "name": "ペリリュー・ドロップオフ周辺（西側）",
            "description": "ペリリュー島西側の透明度抜群の垂直な壁。リーフフィッシュやウミウシなどのマクロから、回遊魚まで幅広い生物が生息する美しい地形。",
            "id": "a_1765700221_ペリリュー・ドロップオフ周辺（西側）",
            "children": [
              {
                "name": "ブルーコーナー (ペリリュー)",
                "desc": "ペリリュー版ブルーコーナー。壁に沿って流れがあり、ホワイトチップリーフシャーク、ナポレオンフィッシュ、バラクーダなどが観察可能。水深10-25m。経験者向け。",
                "latitude": 7.025,
                "longitude": 130.1417,
                "id": "p_1765702804_ブルーコーナー (ペリリュー)",
                "image": ""
              },
              {
                "name": "NGKESU (エンゲス)",
                "desc": "ペリリュー島の南端にあるポイント。ソフトコーラルが美しく、ウミガメや様々な熱帯魚が見られる。穏やかな流れで初心者にもおすすめ。水深5-18m",
                "latitude": 7.0,
                "longitude": 130.15,
                "id": "p_1765702804_NGKESU (エンゲス)",
                "image": ""
              },
              {
                "name": "ホワイトビーチ・ウォール",
                "desc": "ホワイトビーチ近くの壁。透明度が高く、ソフトコーラルが美しい。ウミガメや熱帯魚の群れが見られる。穏やかな流れで初心者にも安心。水深8-20m",
                "latitude": 7.03,
                "longitude": 130.1167,
                "id": "p_1765702804_ホワイトビーチ・ウォール",
                "image": ""
              }
            ]
          },
          {
            "name": "オレンジビーチ/北東リーフ周辺",
            "description": "ペリリュー島東〜北東部。比較的穏やかなリーフで、豊かなサンゴと多彩なリーフフィッシュが生息。戦跡と合わせて歴史を感じるダイビングも。",
            "id": "a_1765700221_オレンジビーチ/北東リーフ周辺",
            "children": [
              {
                "name": "オレンジビーチ・マンタクリーニングステーション",
                "desc": "マンタのクリーニングステーションとして有名。多数のマンタと遭遇できるチャンス大！水深は10-20m程度、流れは穏やか。ソフトコーラルも美しい。",
                "latitude": 4.145,
                "longitude": 152.668,
                "id": "p_1765702817_オレンジビーチ・マンタクリーニングステーション",
                "image": ""
              },
              {
                "name": "ペリリュー・ブルーコーナー（北東リーフ）",
                "desc": "北東リーフの代表的なポイント。壁潜水で、ソフトコーラルやファンコーラルが豊富。ホワイトチップリーフシャーク、ナポレオンフィッシュ、バラクーダなどが見られる。流れが強い場合あり。",
                "latitude": 4.162,
                "longitude": 152.675,
                "id": "p_1765702817_ペリリュー・ブルーコーナー（北東リーフ）",
                "image": ""
              },
              {
                "name": "ペリリュー・NGステーション",
                "desc": "NGステーションと呼ばれる地形ポイント。洞窟やアーチをくぐり抜けながら、個性的な生物観察が可能。水深は15-25m、流れは比較的穏やか。",
                "latitude": 4.158,
                "longitude": 152.67,
                "id": "p_1765702817_ペリリュー・NGステーション",
                "image": ""
              },
              {
                "name": "オレンジビーチ・ソフトコーラルガーデン",
                "desc": "オレンジビーチに広がるソフトコーラルが美しいポイント。ウミガメや熱帯魚の群れが見られる。水深は5-15m、流れは穏やかで初心者にもおすすめ。",
                "latitude": 4.14,
                "longitude": 152.672,
                "id": "p_1765702817_オレンジビーチ・ソフトコーラルガーデン",
                "image": ""
              },
              {
                "name": "ペリリュー・スズメダイの楽園",
                "desc": "スズメダイの種類が豊富で、まるで楽園のようなポイント。ソフトコーラルやハードコーラルも美しく、写真撮影にも最適。水深は8-18m、流れは穏やか。",
                "latitude": 4.15,
                "longitude": 152.665,
                "id": "p_1765702817_ペリリュー・スズメダイの楽園",
                "image": ""
              }
            ]
          }
        ]
      },
      {
        "name": "カヤンゲル環礁",
        "type": "Zone",
        "description": "パラオ最北端に位置する手つかずの自然が残る秘境エリアです。高い透明度と、固有種を含む豊かなサンゴ礁が特徴で、マンタやイルカとの遭遇も期待できます。コロールからの遠征が必要となるため、限られたダイバーのみが訪れる特別な場所です。",
        "id": "z_1765695952_2",
        "children": [
          {
            "name": "北端ドロップオフ・チャネル周辺",
            "description": "カヤンゲル環礁の最北端。外洋からの強いカレントに乗って大型回遊魚やサメが多く集まる。大物狙いのダイナミックなダイビングが魅力です。",
            "id": "a_1765700231_北端ドロップオフ・チャネル周辺",
            "children": [
              {
                "name": "カヤンゲル北の根",
                "desc": "カヤンゲル環礁北端のドロップオフ。ソフトコーラルが豊富で、ナポレオンフィッシュ、マグロ、ホワイトチップ・リーフシャークなどが頻繁に見られる。流れが速い日も。水深15-30m",
                "latitude": 4.15,
                "longitude": 134.48,
                "id": "p_1765702830_カヤンゲル北の根",
                "image": ""
              },
              {
                "name": "マンタスクランブル・カヤンゲル",
                "desc": "マンタのクリーニングステーションとして有名。運が良ければ多数のマンタと遭遇可能。ソフトコーラルも美しい。流れは穏やか。水深10-20m",
                "latitude": 4.18,
                "longitude": 134.5,
                "id": "p_1765702830_マンタスクランブル・カヤンゲル",
                "image": ""
              },
              {
                "name": "ブルーコーナー・カヤンゲル",
                "desc": "カヤンゲル環礁の代表的なポイント。強い流れに沿って、バラクーダ、マグロ、サメなどの大物に出会えるチャンス大。経験者向け。水深15-40m",
                "latitude": 4.17,
                "longitude": 134.49,
                "id": "p_1765702830_ブルーコーナー・カヤンゲル",
                "image": ""
              },
              {
                "name": "ドロップオフ・ガーデン",
                "desc": "美しいソフトコーラルが広がるドロップオフ。ウミガメ、ナポレオンフィッシュ、様々な熱帯魚が見られる。流れは比較的穏やか。水深10-25m",
                "latitude": 4.16,
                "longitude": 134.47,
                "id": "p_1765702830_ドロップオフ・ガーデン",
                "image": ""
              },
              {
                "name": "カヤンゲル・チャネル・インサイド",
                "desc": "チャネル内側は比較的穏やかで、ソフトコーラルやゴルゴンジアが美しい。ハナダイ、チョウチョウウオなどの小魚も豊富。水深8-18m",
                "latitude": 4.19,
                "longitude": 134.51,
                "id": "p_1765702830_カヤンゲル・チャネル・インサイド",
                "image": ""
              }
            ]
          },
          {
            "name": "東側外洋・ドロップオフ周辺",
            "description": "ギンガメアジやバラクーダなどの群れが期待できる外洋。カレントドリフトで広範囲のサンゴ礁やリーフの壁沿いを探索します。",
            "id": "a_1765700231_東側外洋・ドロップオフ周辺",
            "children": [
              {
                "name": "カヤンゲル東 ドロップオフ",
                "desc": "カヤンゲル環礁東側外洋の代表的なドロップオフ。ソフトコーラルが美しく、ナポレオンフィッシュ、マグロ、サメなどの大物に出会えるチャンスも。流れが強め。",
                "latitude": 4.15,
                "longitude": 134.48,
                "id": "p_1765702843_カヤンゲル東 ドロップオフ",
                "image": ""
              },
              {
                "name": "Ulong Channel East (カヤンゲル)",
                "desc": "カヤンゲル環礁東側のチャネル。地形が変化に富み、ソフトコーラルやゴルゴンジアが美しい。ホワイトチップリーフシャークやウミガメもよく見られる。流れの変化に注意。",
                "latitude": 4.12,
                "longitude": 134.5,
                "id": "p_1765702843_Ulong Channel East (カヤンゲル)",
                "image": ""
              },
              {
                "name": "Big Drop-off (カヤンゲル東)",
                "desc": "垂直に落ちるドロップオフ。ソフトコーラルとハードコーラルが共存し、色鮮やかな魚群が観察できる。流れが速い場合があるので、経験者向け。水深は20-40m。",
                "latitude": 4.2,
                "longitude": 134.55,
                "id": "p_1765702843_Big Drop-off (カヤンゲル東)",
                "image": ""
              },
              {
                "name": "Coral Garden East (カヤンゲル)",
                "desc": "東側の穏やかな海域に広がるサンゴ礁。テーブルサンゴやソフトコーラルが群生し、クマノミやチョウチョウウオなど小魚の宝庫。初心者向けのポイント。",
                "latitude": 4.1,
                "longitude": 134.45,
                "id": "p_1765702843_Coral Garden East (カヤンゲル)",
                "image": ""
              }
            ]
          },